parcelid,lat,lng,formatted address,# ROOFTOP address fetched
17100444,34.340801,-119.07961,"347 Laurie Ln, Santa Paula, CA 93060, USA",1
17102429,34.354313,-119.076405,"145 W Pleasant St, Santa Paula, CA 93060, USA",2
17109604,34.266578,-119.165392,"1663 Arroyo Seco Dr, Ventura, CA 93004, USA",1
17125829,34.240014,-119.024793,"3350 El Nido St, Camarillo, CA 93010, USA",2
17132911,34.226842,-119.059815,"777 Aileen St, Camarillo, CA 93010, USA",2
17134926,34.229816,-119.050224,"1586 Habra Ct, Camarillo, CA 93010, USA",1
17139988,34.226351,-118.983853,"908 Carissa Ct, Camarillo, CA 93012, USA",1
17167359,34.179289,-119.169287,"628 E Iris St, Oxnard, CA 93033, USA",3
17179760,34.200478,-119.156509,"220 S Driskill St, Oxnard, CA 93030, USA",3
17198685,34.267854,-118.883528,"4243 Oloroso Cir, Moorpark, CA 93021, USA",2
17212207,34.199102,-118.882964,No result,0
17250387,34.265106,-118.747187,"2589 Hollister St, Simi Valley, CA 93065, USA",2
17254534,34.278739,-118.744589,"2654 Cochran St, Simi Valley, CA 93065, USA",2
17260270,34.276919,-118.664161,"2222 Lana Ct, Simi Valley, CA 93063, USA",2
17283162,34.190852,-118.846479,"1707 Ide Ct, Thousand Oaks, CA 91362, USA",1
17283891,34.192567,-118.838784,"1171 Cardiff Cir, Thousand Oaks, CA 91362, USA",3
17291231,34.19433,-118.806073,"1688 Castlebridge Ct, Westlake Village, CA 91362, USA",1
17296734,34.174051,-118.757031,"6351 Pinion St, Oak Park, CA 91377, USA",1
10727091,34.188121,-118.646361,"23831 Mobile St, West Hills, CA 91307, USA",1
10730788,34.188446,-118.616724,"6514 Capistrano Ave, West Hills, CA 91307, USA",2
10735394,34.171439,-118.646883,"5568 El Canon Ave, Woodland Hills, CA 91367, USA",1
10760933,34.220631,-118.521001,"17806 Roscoe Blvd, Northridge, CA 91325, USA",2
10772282,34.209413,-118.578052,"20414 Keswick St, Canoga Park, CA 91306, USA",2
10783331,34.185891,-118.550426,"19133 Friar St, Tarzana, CA 91335, USA",2
10784006,34.192384,-118.54967,"19113 Archwood St, Reseda, CA 91335, USA",1
10808112,34.157695,-118.595642,"21336 Dumetz Rd, Woodland Hills, CA 91364, USA",3
10826124,34.206364,-118.440743,"7454 Stansbury Ave, Van Nuys, CA 91405, USA",2
10836049,34.187044,-118.513829,"17453 Victory Blvd, Van Nuys, CA 91406, USA",1
10837497,34.188289,-118.499379,"6453 Forbes Ave, Van Nuys, CA 91406, USA",1
10838338,34.187846,-118.485646,"16155 Gilmore St, Van Nuys, CA 91406, USA",1
10863950,34.144116,-118.454129,"14604 Lacota Pl, Sherman Oaks, CA 91403, USA",3
10874829,34.217368,-118.401386,"8048 Shadyglade Ave, North Hollywood, CA 91605, USA",1
10887713,34.181941,-118.407191,"6124 Beeman Ave, North Hollywood, CA 91606, USA",3
10901050,34.16241,-118.394627,"12005 Hesby St, North Hollywood, CA 91607, USA",2
10917954,34.129972,-118.417216,"3301 Longridge Ave, Sherman Oaks, CA 91423, USA",2
10949658,34.188449,-118.341923,"1801 N Catalina St, Burbank, CA 91505, USA",2
10954606,34.214562,-118.332182,"3318 Durham Ct, Burbank, CA 91504, USA",1
10963287,34.321837,-118.454959,"13735 Dronfield Ave, Sylmar, CA 91342, USA",1
10967796,34.294311,-118.444755,"14323 Hubbard St, Sylmar, CA 91342, USA",2
10977412,34.282897,-118.444983,"415 San Fernando Mission Blvd, San Fernando, CA 91340, USA",3
10981317,34.274018,-118.360452,"10548 Foothill Blvd, Sylmar, CA 91342, USA",2
10991805,34.26109,-118.34045,"9541 La Canada Way, Sunland-Tujunga, CA 91040, USA",1
10997744,34.253901,-118.301427,"7735 Beckett St, Tujunga, CA 91042, USA",2
11003421,34.255732,-118.26718,"6269 Fern Canyon Trail, Tujunga, CA 91042, USA",2
11017602,34.290601,-118.463256,"15165 Holiday Way, Sylmar, CA 91342, USA",2
11049110,34.27698,-118.474244,"15714 Kalisher St, Granada Hills, CA 91344, USA",2
11060445,34.23989,-118.499777,"16842 Liggett St, Northridge, CA 91343, USA",1
11074135,34.266973,-118.533125,"10818 Darby Ave, Northridge, CA 91326, USA",1
11161277,34.451185,-118.388443,"30042 Abelia Rd, Santa Clarita, CA 91387, USA",3
11174690,34.500272,-118.629749,"28158 Royal Rd, Castaic, CA 91384, USA",1
11195296,34.58974,-118.126298,"38928 Stanridge Ave, Palmdale, CA 93550, USA",2
11196458,34.581149,-118.123688,"333 Ave Q-7, Palmdale, CA 93550, USA",2
11203521,34.570768,-118.083732,"2530 E Ave R-2, Palmdale, CA 93550, USA",2
11203790,34.566381,-118.076524,"37606 Cluny Ave, Palmdale, CA 93550, USA",2
11204428,34.560899,-118.088137,"2234 Moonlight Ct, Palmdale, CA 93550, USA",2
11215519,34.56765,-118.02055,"6055 Catalina Ln, Palmdale, CA 93552, USA",2
11243849,34.474226,-117.908098,"12323 E Ave X 12, Pearblossom, CA 93553, USA",1
11260905,34.635978,-118.226891,"5339 Palais Pl, Palmdale, CA 93551, USA",2
11280892,34.687627,-118.170029,"VAC/22ND Stw/Vic Ave Fwy, Lancaster, CA 93535, USA",3
11298368,34.678761,-118.107555,"43809 Rembrandt St, Lancaster, CA 93535, USA",2
11330895,34.503399,-118.191445,"34400 Weststar Rd, Acton, CA 93510, USA",1
11331030,34.503021,-118.169315,"34234 Mountain Pl, Acton, CA 93510, USA",1
11398906,33.975495,-118.344547,"757 E 67th St, Inglewood, CA 90302, USA",1
11409970,33.958843,-118.32373,"8701 S 6th Ave, Inglewood, CA 90305, USA",2
11409993,33.958979,-118.322643,"8624 S 6th Ave, Inglewood, CA 90305, USA",2
11428477,33.908939,-118.323973,"2903 135th Pl, Gardena, CA 90249, USA",1
11457330,33.963768,-118.388835,"6006 W 82nd St, Los Angeles, CA 90045, USA",2
11476413,33.924627,-118.418834,"640 Virginia St, El Segundo, CA 90245, USA",2
11496374,33.870986,-118.38814,"1716 Goodman Ave, Redondo Beach, CA 90278, USA",1
11500018,33.886747,-118.390445,"1335 11th St, Manhattan Beach, CA 90266, USA",2
11502890,33.890843,-118.395781,"1700 N Sepulveda Blvd, Manhattan Beach, CA 90266, USA",3
11508164,33.882364,-118.405206,"517 6th Pl, Manhattan Beach, CA 90266, USA",1
11533039,33.986382,-118.430879,"12930 Walsh Ave, Los Angeles, CA 90066, USA",3
11533607,33.989894,-118.424286,"12499 Walsh Ave, Los Angeles, CA 90066, USA",3
11545637,33.990806,-118.447923,"2570 Lincoln Blvd, Venice, CA 90291, USA",2
11610085,34.037252,-118.412417,"10419 Dunleer Dr, Los Angeles, CA 90064, USA",1
11636324,34.082178,-118.399239,"622 N Maple Dr, Beverly Hills, CA 90210, USA",1
11639479,34.086675,-118.412526,"1006 N Beverly Dr, Beverly Hills, CA 90210, USA",2
11640238,34.097508,-118.404809,"1435 Lindacrest Dr, Beverly Hills, CA 90210, USA",2
11640788,34.096498,-118.420963,"1364 Braeridge Dr, Beverly Hills, CA 90210, USA",2
11648644,34.091558,-118.45404,"1101 Stradella Rd, Los Angeles, CA 90077, USA",2
11665883,34.040735,-118.559569,"17561 Posetano Rd, Pacific Palisades, CA 90272, USA",2
11666355,34.043023,-118.561365,"17727 Tramonto Dr, Pacific Palisades, CA 90272, USA",1
11670849,34.070471,-118.560299,"17171 Pso Allegre, Pacific Palisades, CA 90272, USA",1
11688422,34.037317,-118.844111,"6208 Tapia Dr, Malibu, CA 90265, USA",1
11698940,33.99518,-118.356792,"5154 Onacrest Dr, View Park, CA 90043, USA",1
11707866,34.006209,-118.305085,"1547 W 42nd Pl, Los Angeles, CA 90062, USA",2
11724609,34.019777,-118.343977,"3704 Potomac Ave, Los Angeles, CA 90016, USA",2
11729338,34.030554,-118.315744,"2232 W 27th St, Los Angeles, CA 90018, USA",1
11759834,33.990926,-118.270955,"223 E 57th St, Los Angeles, CA 90011, USA",2
11763394,34.00071,-118.252884,"1259 E 47th Pl, Los Angeles, CA 90011, USA",2
11895127,34.097431,-118.139569,"428 N Electric Ave, Alhambra, CA 91801, USA",3
11915541,34.092019,-118.096767,"315 E Grand Ave, San Gabriel, CA 91776, USA",1
11930055,34.098198,-118.071125,"9065 Rancho Real Rd, Temple City, CA 91780, USA",2
11931171,34.094013,-118.0784,"8725 Andes St, San Gabriel, CA 91776, USA",2
11951252,34.111517,-118.257349,"3210 Glenhurst Ave, Los Angeles, CA 90039, USA",3
11964672,34.104769,-118.209609,"514 Museum Dr, Los Angeles, CA 90065, USA",2
11995437,34.084985,-118.340388,"752 N Mansfield Ave, Los Angeles, CA 90038, USA",1
12024889,34.11978,-118.384553,"8651 Allenwood Rd, Los Angeles, CA 90046, USA",2
12028575,34.112579,-118.330376,"2284 Holly Dr, Los Angeles, CA 90068, USA",1
12028872,34.111924,-118.328798,"6403 Ivarene Ave, Los Angeles, CA 90068, USA",1
12038509,34.115601,-118.284487,"4224 Parva Ave, Los Angeles, CA 90027, USA",1
12057121,34.175643,-118.273369,"1664 Ben Lomond Dr, Glendale, CA 91202, USA",1
12075904,34.181361,-118.205746,"3195 Emerald Isle Dr, Glendale, CA 91206, USA",3
12077310,34.156921,-118.233068,"828 Avonoak Terrace, Glendale, CA 91206, USA",1
12084427,34.130424,-118.237643,"1321 Marion Dr, Glendale, CA 91205, USA",1
12121343,34.138157,-118.09519,"465 S San Gabriel Blvd, Pasadena, CA 91107, USA",1
12123741,34.156784,-118.081038,"600 Sierra Madre Villa Ave, Pasadena, CA 91107, USA",2
12133589,34.152869,-118.049615,"525 Gloria Rd, Arcadia, CA 91006, USA",1
12133758,34.149391,-118.054678,"1024 N Old Ranch Rd, Arcadia, CA 91006, USA",1
12154738,34.209722,-118.195634,"4942 Commonwealth Ave, La Cañada Flintridge, CA 91011, USA",1
12165966,34.185715,-118.142156,"2328 Oliveras Ave, Altadena, CA 91001, USA",1
12194698,33.967935,-118.301858,"7838 S Halldale Ave, Los Angeles, CA 90047, USA",1
12229313,33.938101,-118.240236,"1813 E 108th St, Los Angeles, CA 90059, USA",2
12261052,33.893853,-118.252759,"2100 W 152nd St, Compton, CA 90220, USA",1
12305098,33.952639,-118.200999,"8931 San Luis Ave, South Gate, CA 90280, USA",1
12312314,33.93888,-118.191966,"10242 Dorothy Ave, South Gate, CA 90280, USA",1
12319582,33.94505,-118.151817,"7358 Neo St, Downey, CA 90241, USA",3
12365781,33.972947,-118.184505,"6834 King Ave, Bell, CA 90201, USA",2
12366003,33.971613,-118.178892,"4925 Beck Ave, Bell, CA 90201, USA",2
12381742,33.985261,-118.11795,"1337 S 4th St, Montebello, CA 90640, USA",3
12396136,33.975189,-118.084762,"7036 Pico Vista Rd, Pico Rivera, CA 90660, USA",1
12397005,33.968676,-118.091671,"9629 Poinciana St, Pico Rivera, CA 90660, USA",1
12399215,33.957535,-118.10122,"8611 Eglise Ave, Pico Rivera, CA 90660, USA",1
12423997,33.854191,-118.064816,"12535 Brando St, Cerritos, CA 90703, USA",2
12425118,33.850965,-118.07488,"12046 Wendy St, Cerritos, CA 90703, USA",1
12428562,33.838961,-118.082456,"20925 Pioneer Blvd, Lakewood, CA 90715, USA",2
12435372,33.827538,-118.104385,"6523 E Harco St, Long Beach, CA 90808, USA",2
12435841,33.826929,-118.09899,"3818 N Studebaker Rd, Long Beach, CA 90808, USA",1
12456430,33.848433,-118.174227,"5028 Matney Ave, Long Beach, CA 90807, USA",2
12460417,33.844245,-118.176027,"4709 Brayton Ave, Long Beach, CA 90807, USA",2
12462848,33.834743,-118.178734,"1061 E Burlinghall Dr, Long Beach, CA 90807, USA",2
12473295,33.854215,-118.151144,"3349 Candlewood St, Lakewood, CA 90712, USA",2
12481222,33.865821,-118.139784,"6060 Blackthorne Ave, Lakewood, CA 90712, USA",1
12490615,33.835861,-118.132282,"4250 N Greenbrier Rd, Long Beach, CA 90808, USA",3
12493241,33.82379,-118.109367,"3656 Carfax Ave, Long Beach, CA 90808, USA",1
12494110,33.822064,-118.119181,"5802 E Monlaco Rd, Long Beach, CA 90808, USA",1
12494625,33.822731,-118.127791,"5342 E Keynote St, Long Beach, CA 90808, USA",1
12531384,33.764046,-118.126949,"352 La Verne Ave, Long Beach, CA 90803, USA",2
12616619,33.847193,-118.252809,"20327 Annalee Ave, Carson, CA 90746, USA",1
12621525,33.808201,-118.291197,"921 Stonebryn Dr, Harbor City, CA 90710, USA",1
12644031,33.753449,-118.298418,"979 W Channel St, San Pedro, CA 90731, USA",1
12644945,33.749773,-118.296746,"735 N Meyler St, San Pedro, CA 90731, USA",2
12675403,33.856157,-118.36717,"5122 Arvada St, Torrance, CA 90503, USA",1
12690337,33.794629,-118.375154,"3250 Vía Campesina, Rancho Palos Verdes, CA 90275, USA",1
12709722,33.768869,-118.401962,"7005 Abbottswood Dr, Rancho Palos Verdes, CA 90275, USA",1
12713256,33.76987,-118.363371,"28016 Seashell Way, Rancho Palos Verdes, CA 90275, USA",2
12752141,33.902073,-118.004361,"15343 Manzanares Rd, La Mirada, CA 90638, USA",2
12755124,33.896005,-118.075667,"12075 Abingdon St, Norwalk, CA 90650, USA",1
12792459,33.932434,-118.020594,"11042 Chadsey Dr, Whittier, CA 90604, USA",1
12803247,33.978143,-118.054795,"11732 Loch Lomond Dr, Whittier, CA 90606, USA",1
12825462,33.932434,-118.001658,"15354 Fernview St, Whittier, CA 90604, USA",1
12835748,34.022694,-117.948513,"236 N Stimson Ave, La Puente, CA 91744, USA",3
12845930,33.94708,-117.929096,"2155 Choral Dr, La Habra Heights, CA 90631, USA",1
12869998,34.089067,-117.710186,"374 Sycamore Ave, Claremont, CA 91711, USA",2
12875159,34.064525,-117.733932,"858 Reeves Pl, Pomona, CA 91767, USA",1
12879562,34.025743,-117.744408,"2532 Cottonwood Pl, Pomona, CA 91766, USA",1
12892677,34.07614,-117.763607,"845 Hillcrest Dr, Pomona, CA 91768, USA",2
12903469,34.095456,-117.828196,"806 S Dumaine Ave, San Dimas, CA 91773, USA",1
12914976,34.106663,-117.914581,"17054 E Arrow Hwy, Covina, CA 91722, USA",1
12933322,34.07615,-117.868569,"1068 E Ranchcreek Rd, Covina, CA 91724, USA",2
12940416,34.068148,-117.957659,"1228 S Leland Ave, West Covina, CA 91790, USA",2
12944415,34.06815,-117.943222,"1605 Sawyer Ave, West Covina, CA 91790, USA",2
12954578,34.05359,-117.910911,"1632 E Merced Ave, West Covina, CA 91791, USA",1
12967897,34.157813,-118.006054,"308 W Hillcrest Blvd, Monrovia, CA 91016, USA",2
13007675,34.100666,-118.065026,"5530 Alessandro Ave, Temple City, CA 91780, USA",1
13016363,34.14792,-117.93783,"401 Mountaincrest Rd, Duarte, CA 91010, USA",1
13018949,34.120304,-117.909659,"142 S Angeleno Ave, Azusa, CA 91702, USA",1
13024330,34.114799,-117.891737,"18438 E Ghent St, Azusa, CA 91702, USA",1
13037644,34.136325,-117.854571,"711 E Foothill Blvd, Glendora, CA 91741, USA",1
13046210,34.12727,-117.777221,"1374 Oak Ridge Dr, La Verne, CA 91750, USA",2
13061285,34.035682,-117.776739,"51 Stagecoach Dr, Pomona, CA 91766, USA",1
13071663,34.028177,-117.778759,"18 Stonegate Cir, Pomona, CA 91766, USA",1
13083030,34.012798,-117.894565,"316 Abery Ave, La Puente, CA 91744, USA",1
13083445,34.011814,-117.904185,"18220 Villa Park St, La Puente, CA 91744, USA",1
13083568,34.010412,-117.90433,"18218 Lanaca St, La Puente, CA 91744, USA",1
13876218,33.869327,-117.886,"260 Aquila Ave, Fullerton, CA 92831, USA",3
13880078,33.840326,-117.895947,"1637 E Lincoln Ave, Anaheim, CA 92805, USA",2
13910109,33.845184,-117.960702,"2266 W Sequoia Ave, Anaheim, CA 92801, USA",1
13920964,33.81157,-117.999631,"10371 Courtright Rd, Stanton, CA 90680, USA",3
13922014,33.828024,-117.896625,"1256 E Arizona Pl, Anaheim, CA 92805, USA",2
13980447,33.625369,-117.897913,"1208 Somerset Ln, Newport Beach, CA 92660, USA",2
13992486,33.830928,-117.953872,"215 S Camellia St, Anaheim, CA 92804, USA",2
13993560,33.825556,-117.954139,"2046 W Willow Ave, Anaheim, CA 92804, USA",2
13996803,33.811661,-117.934063,"1531 W Lullaby Ln, Anaheim, CA 92802, USA",2
14006868,33.797164,-117.983259,"11382 Yana Dr, Garden Grove, CA 92841, USA",2
14009444,33.77908,-117.97377,"12641 Lucille Ave, Garden Grove, CA 92841, USA",3
14030172,33.736876,-117.957534,"15562 Dalewood Ln, Westminster, CA 92683, USA",2
14034873,33.725789,-117.923497,"11800 Violet Cir, Fountain Valley, CA 92708, USA",2
14065493,33.698273,-118.017754,"18201 Fieldbury Ln, Huntington Beach, CA 92648, USA",2
14067796,33.707319,-118.025758,"17552 Griffith Cir, Huntington Beach, CA 92649, USA",1
14069730,33.708866,-118.012268,"6671 Cory Dr, Huntington Beach, CA 92647, USA",2
14072216,33.71233,-117.958807,"9753 El Portal Cir, Fountain Valley, CA 92708, USA",3
14077629,33.720416,-118.061564,"16672 Wanderer Ln, Huntington Beach, CA 92649, USA",3
14084562,33.74846,-118.007561,"6942 Sowell Ave, Westminster, CA 92683, USA",1
14088528,33.747351,-118.100747,"1030 Marvista Ave, Seal Beach, CA 90740, USA",2
14095292,33.777276,-118.043537,"3681 Wisteria St, Seal Beach, CA 90740, USA",2
14096829,33.783088,-118.03672,"5532 Richmond Ave, Garden Grove, CA 92845, USA",2
14099075,33.792894,-118.024,"6198 Palau St, Cypress, CA 90630, USA",1
14119894,33.843372,-118.056423,"8195 Mulberry St, Cypress, CA 90630, USA",3
14142600,33.894552,-117.963377,"2024 Verdugo Pl, Fullerton, CA 92833, USA",2
14142723,33.89078,-117.963082,"1648 Canyon Dr, Fullerton, CA 92833, USA",1
14154973,33.937597,-117.906447,No result,0
14163873,33.900145,-117.827265,"4231 Trix Cir, Yorba Linda, CA 92886, USA",2
14172203,33.90413,-117.853043,"2305 Onondaga Ave, Placentia, CA 92870, USA",1
14195171,33.86634,-117.789729,"6640 Bridle Cir, Yorba Linda, CA 92886, USA",2
14201567,33.875886,-117.725078,"5595 Vía Verano, Yorba Linda, CA 92887, USA",2
14213070,33.837949,-117.819735,"4401 E Ridge Gate Rd, Anaheim, CA 92807, USA",2
14246797,33.764127,-117.819166,"13731 Rushmore Ln, Santa Ana, CA 92705, USA",2
14254998,33.755411,-117.825803,"17512 Wellington Ave, Tustin, CA 92780, USA",2
14260214,33.755886,-117.882178,"1150 W Washington Ave, Santa Ana, CA 92706, USA",2
14265012,33.696868,-117.878033,"900 Keller Ave, Santa Ana, CA 92707, USA",3
14278942,33.626156,-117.910979,"498 16th Pl, Costa Mesa, CA 92627, USA",2
14293534,33.653813,-117.895158,"2433 Santa Ana Ave, Costa Mesa, CA 92627, USA",2
14316113,33.629642,-117.853405,"18 Boardwalk, Newport Beach, CA 92660, USA",2
14321046,33.638628,-117.803164,"9 Purple Sage, Irvine, CA 92603, USA",2
14337256,33.769328,-117.786579,"11042 Wickford Dr, Santa Ana, CA 92705, USA",2
14339281,33.860819,-117.722317,"8783 E Garden View Dr, Anaheim, CA 92808, USA",3
14366202,33.657421,-117.687859,"21051 Champlain, Lake Forest, CA 92630, USA",3
14368935,33.631327,-117.68046,"25816 Southbrook, Lake Forest, CA 92630, USA",2
14375270,33.649757,-117.690495,"25231 Cll Busca, Lake Forest, CA 92630, USA",2
14378700,33.627154,-117.71088,"24019 Crescent Rd, Lake Forest, CA 92630, USA",2
14388131,33.579233,-117.701134,"24575 Sundance Ave, Laguna Hills, CA 92653, USA",3
14391093,33.577924,-117.73688,"14 Brittany Bay, Aliso Viejo, CA 92656, USA",2
14396132,33.557022,-117.693766,"25001 Pam Ct, Laguna Niguel, CA 92677, USA",2
14431231,33.480448,-117.699791,"33211 Christina Dr, Dana Point, CA 92629, USA",3
14441651,33.468815,-117.68921,"25242 La Cresta Dr, Dana Point, CA 92629, USA",3
14446178,33.434948,-117.591515,"44 Via Zaragoza, San Clemente, CA 92672, USA",3
14448327,33.446464,-117.638973,"2715 Via Casa Loma, San Clemente, CA 92672, USA",3
14460432,33.573314,-117.583145,"28 Portmarnoch Ct, Coto De Caza, CA 92679, USA",2
14480163,33.594544,-117.626345,"18 Tanglewood Ln, Rancho Santa Margarita, CA 92688, USA",1
14480263,33.589629,-117.639048,"33 Windgate, Mission Viejo, CA 92692, USA",2
14480432,33.617438,-117.585924,"32 Via Andorra, Coto De Caza, CA 92679, USA",2
14480785,33.618737,-117.572027,"32072 Via Buho, Trabuco Canyon, CA 92679, USA",1
14487844,33.604007,-117.647285,"3551 Golondrina, Mission Viejo, CA 92692, USA",3
14492101,33.620721,-117.669764,"26396 Vía Galicia, Mission Viejo, CA 92691, USA",1
14501480,33.643509,-117.621804,"30 San Gabriel, Rancho Santa Margarita, CA 92688, USA",2
17292856,34.125457,-118.891074,"637 Duchy Way, Thousand Oaks, CA 91361, USA",1
11171690,34.410577,-118.567648,"26816 Fairlain Dr, Santa Clarita, CA 91355, USA",1
11323451,34.585525,-118.164479,"1846 Dawnridge Ct, Palmdale, CA 93551, USA",2
14323393,33.666449,-117.778338,"24 Preston, Irvine, CA 92618, USA",2
14350612,33.722875,-117.744512,"16 Plumbago, Irvine, CA 92620, USA",3
13053431,34.137483,-117.698951,"991 Olympic Ct, Claremont, CA 91711, USA",2
14162822,33.907127,-117.829078,"3770 Oak Hill Dr, Yorba Linda, CA 92886, USA",2
14408223,33.529145,-117.669972,"29802 Trabuco Creek Rd, San Juan Capistrano, CA 92675, USA",2
14461714,33.559994,-117.58325,"28 Weber Ln, Coto De Caza, CA 92679, USA",1
13936325,33.798067,-117.932202,"2022 9th St, Anaheim, CA 92802, USA",2
17250351,34.266697,-118.676444,"5892 Oak Fern Ct, Simi Valley, CA 93063, USA",1
14066675,33.690583,-118.000012,"7317 Arcadia Dr, Huntington Beach, CA 92648, USA",2
11319763,34.636983,-118.250308,"6735 Pistachio Pl, Palmdale, CA 93551, USA",1
11306729,34.695188,-118.184505,"3018 W Lumber St, Lancaster, CA 93536, USA",1
11307372,34.680117,-118.205613,"43904 42nd St W, Lancaster, CA 93536, USA",1
11324650,34.567659,-118.172881,"37767 Mangrove Dr, Palmdale, CA 93551, USA",1
17187945,34.209796,-119.019275,"3804 Fountain St, Camarillo, CA 93012, USA",1
11216644,34.575294,-118.006841,"38163 Soudan Ave, Palmdale, CA 93552, USA",2
17057305,34.453936,-119.226839,"1496 Grand Ave, Ojai, CA 93023, USA",1
17087760,34.27424,-119.218179,"5649 Larkin St, Ventura, CA 93003, USA",1
17090279,34.286107,-119.190157,"7898 El Dorado St, Ventura, CA 93004, USA",1
17117708,34.224217,-119.188625,"930 Fuchsia St, Oxnard, CA 93036, USA",1
17127580,34.23082,-119.065042,"9 Camino Castenada, Camarillo, CA 93010, USA",1
17136715,34.23744,-119.026468,"1941 Dwight Ave, Camarillo, CA 93010, USA",1
17136815,34.234713,-119.030859,"1712 Munson St, Camarillo, CA 93010, USA",3
17143817,34.227289,-118.997972,"5313 San Francesca Dr, Camarillo, CA 93012, USA",2
17161962,34.201832,-119.167263,"154 Lupita St, Oxnard, CA 93030, USA",1
17171118,34.150266,-119.214635,"160 Van Nuys Ave, Oxnard, CA 93035, USA",2
17173376,34.15741,-119.191626,"615 Park Ave, Port Hueneme, CA 93041, USA",1
17180866,34.16682,-119.17447,"340 De Anza Way, Oxnard, CA 93033, USA",1
17206103,34.298479,-118.859959,"6821 N Tulane Ave, Moorpark, CA 93021, USA",2
17214644,34.186726,-118.903039,"597 Kalinda Pl, Thousand Oaks, CA 91320, USA",2
17221825,34.248135,-118.819567,"917 Firestone Cir, Simi Valley, CA 93065, USA",2
17223813,34.233742,-118.860532,"1052 Calle Contento, Thousand Oaks, CA 91360, USA",2
17224631,34.225972,-118.83485,"2393 Otono Cir, Thousand Oaks, CA 91362, USA",2
17228772,34.281574,-118.767597,"2578 Callahan Ave, Simi Valley, CA 93065, USA",2
17243957,34.278468,-118.773496,"1339 Agnew St, Simi Valley, CA 93065, USA",2
17249548,34.268336,-118.663942,"6465 Hope St, Simi Valley, CA 93063, USA",2
17251977,34.259672,-118.744974,"2655 Hammil Ct, Simi Valley, CA 93065, USA",1
17265842,34.179478,-118.912668,"1616 Meadowglen Ct, Thousand Oaks, CA 91320, USA",3
17290419,34.193839,-118.819559,"1647 Larkfield Ave, Westlake Village, CA 91362, USA",1
10735049,34.176607,-118.652044,"5849 Valley Cir Blvd, Woodland Hills, CA 91367, USA",1
10735249,34.171513,-118.653792,"5548 Franrivers Ave, Woodland Hills, CA 91367, USA",2
10749958,34.141517,-118.749376,"4926 Vejar Dr, Agoura Hills, CA 91301, USA",2
10757417,34.155705,-118.625344,"4626 Romberg Pl, Woodland Hills, CA 91364, USA",2
10767017,34.215894,-118.578137,"20417 Strathern St, Canoga Park, CA 91306, USA",2
10767769,34.217074,-118.580582,"8100 Sunny Brae Ave, Canoga Park, CA 91306, USA",1
10771670,34.206714,-118.58129,"7503 Sunny Brae Ave, Canoga Park, CA 91306, USA",1
10777179,34.206287,-118.525629,"7449 Newcastle Ave, Reseda, CA 91335, USA",2
10779521,34.18231,-118.520064,"6200 Balcom Ave, Encino, CA 91316, USA",1
10794525,34.191966,-118.582322,"20601 Archwood St, Canoga Park, CA 91306, USA",2
10806881,34.160852,-118.573511,"20257 Allentown Dr, Woodland Hills, CA 91364, USA",1
10814303,34.14974,-118.543714,"18938 La Amistad Pl, Tarzana, CA 91356, USA",1
10854474,34.163161,-118.479111,"5150 Gloria Ave, Encino, CA 91436, USA",2
10868096,34.140236,-118.485003,"3830 Hayvenhurst Dr, Encino, CA 91436, USA",2
10877636,34.205987,-118.37289,"11107 Runnymede St, Sun Valley, CA 91352, USA",2
10882849,33.989975,-118.42593,"12529 Greene Ave, Los Angeles, CA 90066, USA",1
10904491,34.156762,-118.429441,"4733 Ventura Canyon Ave, Van Nuys, CA 91423, USA",1
10915596,34.135644,-118.380181,"3601 Berry Dr, Studio City, CA 91604, USA",1
10925330,34.187344,-118.353859,"2117 N Maple St, Burbank, CA 91505, USA",2
10947895,34.198587,-118.318019,"712 Birmingham Rd, Burbank, CA 91504, USA",1
10971922,34.311464,-118.419946,"13247 Tripoli Ave, Sylmar, CA 91342, USA",2
10993918,34.265359,-118.287559,"10823 Burland Ave, Tujunga, CA 91042, USA",2
11010955,34.318018,-118.478424,"13759 Norris Ave, Sylmar, CA 91342, USA",1
11011001,34.315539,-118.477209,"13451 Pala Ave, Sylmar, CA 91342, USA",3
11025663,34.238311,-118.420136,"9262 Lev Ave, Arleta, CA 91331, USA",1
11058266,34.269561,-118.497433,"10952 Ruffner Ave, Granada Hills, CA 91344, USA",2
11061966,34.223271,-118.488354,"16328 Community St, North Hills, CA 91343, USA",1
11076456,34.259536,-118.602607,"10410 Hillview Ave, Chatsworth, CA 91311, USA",1
11087559,34.252357,-118.604007,"21801 Vintage St, Chatsworth, CA 91311, USA",1
11137653,34.361497,-118.550943,"23731 La Salle Canyon Dr, Newhall, CA 91321, USA",2
11139844,34.375801,-118.549122,"25065 Green Mill Ave, Newhall, CA 91321, USA",2
11178008,34.452141,-118.622184,"27879 Beacon St, Castaic, CA 91384, USA",2
11184944,34.627129,-118.226293,"41009 Ridgegate Ln, Palmdale, CA 93551, USA",1
11185044,34.627395,-118.227936,"41006 Vista Rambia, Palmdale, CA 93551, USA",1
11200223,34.562118,-118.10307,"1446 Springline Dr, Palmdale, CA 93550, USA",2
11212106,34.573382,-118.035556,"38021 53rd St E, Palmdale, CA 93552, USA",1
11212206,34.563176,-118.02685,"37501 Park Forest Ct, Palmdale, CA 93552, USA",2
11213104,34.573356,-118.040335,"38026 50th St E, Palmdale, CA 93552, USA",1
11215397,34.566456,-118.015629,"37641 Hammer St, Palmdale, CA 93552, USA",2
11231305,34.550413,-118.041964,"4801 E Ave S8, Palmdale, CA 93552, USA",1
11235323,34.544227,-118.073989,"36517 Mustang Ln, Palmdale, CA 93550, USA",1
11236222,34.55416,-118.061356,"3747 Southview Ct, Palmdale, CA 93550, USA",1
11249965,34.615483,-117.817775,"40333 Ridgemist St, Lake Los Angeles, CA 93591, USA",2
11250977,34.588371,-117.837494,"38913 164th St E, Palmdale, CA 93591, USA",1
11285608,34.675373,-118.138225,"43607 Park Ave, Lancaster, CA 93534, USA",2
11429395,33.910035,-118.318949,"13413 Spinning Ave, Gardena, CA 90249, USA",1
11438411,33.883293,-118.344121,"16211 Prairie Ave, Lawndale, CA 90260, USA",2
11479082,33.927881,-118.398317,"1616 E Sycamore Ave, El Segundo, CA 90245, USA",1
11527084,34.006851,-118.409264,"4190 Center St, Culver City, CA 90232, USA",1
11529259,33.99101,-118.399655,"11486 Diller Ave, Culver City, CA 90230, USA",2
11580565,34.035021,-118.492585,"739 17th St, Santa Monica, CA 90402, USA",3
11586465,34.008064,-118.467805,"1360 Ashland Ave, Santa Monica, CA 90405, USA",1
11602482,34.047333,-118.39177,"9302 Oakmore Rd, Los Angeles, CA 90035, USA",1
11610063,34.036632,-118.413478,"2928 Patricia Ave, Los Angeles, CA 90064, USA",1
11619336,34.058055,-118.428722,"10511 Kinnard Ave, Los Angeles, CA 90024, USA",1
11647488,34.069853,-118.459296,"334 S Bentley Ave, Los Angeles, CA 90049, USA",1
11658403,34.069022,-118.473335,"337 N Barrington Ave, Los Angeles, CA 90049, USA",2
11660030,34.061658,-118.486506,"320 N Cliffwood Ave, Los Angeles, CA 90049, USA",3
11661778,34.047309,-118.510148,"1011 Ravoli Dr, Pacific Palisades, CA 90272, USA",2
11668995,34.048303,-118.522205,"1034 Fiske St, Pacific Palisades, CA 90272, USA",1
11669378,34.044096,-118.518154,"816 Iliff St, Pacific Palisades, CA 90272, USA",1
11669501,34.042934,-118.519037,"760 Hartzell St, Pacific Palisades, CA 90272, USA",1
11670666,34.068249,-118.469723,"11580 Sunset Blvd, Los Angeles, CA 90049, USA",2
11686285,34.016233,-118.802894,"28950 Boniface Dr, Malibu, CA 90265, USA",1
11709217,34.007928,-118.317625,"4169 S Van Ness Ave, Los Angeles, CA 90062, USA",2
11724387,34.020537,-118.338656,"3677 Wellington Rd, Los Angeles, CA 90016, USA",1
11729362,34.029665,-118.31508,"2806 Cimarron St, Los Angeles, CA 90018, USA",2
11735393,34.038605,-118.337573,"1949 Buckingham Rd, Los Angeles, CA 90016, USA",3
11737161,34.037045,-118.358134,"2309 S Dunsmuir Ave, Los Angeles, CA 90016, USA",2
11738197,34.032539,-118.377181,"6093 Hargis St, Los Angeles, CA 90034, USA",3
11765824,33.999773,-118.273914,"4756 S Main St, Los Angeles, CA 90037, USA",1
11769554,34.006415,-118.246669,"1540 E 42nd St, Los Angeles, CA 90011, USA",2
11856071,34.046125,-118.097682,"7851 Steddom Dr, Rosemead, CA 91770, USA",2
11857585,34.045807,-118.103709,"1775 Robinlinda Ln, Monterey Park, CA 91755, USA",2
11864753,34.071365,-118.101144,"7713 Columbia St, Rosemead, CA 91770, USA",2
11874371,34.083854,-118.193236,"3405 Galena St, Los Angeles, CA 90032, USA",3
11892272,34.118241,-118.093598,"2895 Woodlawn Ave, San Marino, CA 91108, USA",1
11912767,34.106584,-118.108583,"605 Sycamore Dr, San Gabriel, CA 91775, USA",2
11921987,34.129799,-118.090898,"1046 S San Gabriel Blvd, Pasadena, CA 91107, USA",2
11925769,34.123131,-118.059325,"1308 S Golden W Ave, Arcadia, CA 91007, USA",2
11930033,34.098687,-118.068469,"9158 Broadway, Temple City, CA 91780, USA",2
11955902,34.089095,-118.211213,"103 E Avenue 37, Los Angeles, CA 90031, USA",2
11975186,34.12998,-118.183768,"6262 Annan Way, Los Angeles, CA 90042, USA",2
11988800,34.077856,-118.369413,"8264 Oakwood Ave, Los Angeles, CA 90048, USA",2
11989106,34.073187,-118.326893,"100 S Rossmore Ave, Los Angeles, CA 90004, USA",1
11989666,34.069963,-118.316644,"238 S Norton Ave, Los Angeles, CA 90004, USA",2
11995868,34.07765,-118.334531,"341 N June St, Los Angeles, CA 90004, USA",2
12019399,34.098985,-118.374154,"8464 Hollywood Blvd, Los Angeles, CA 90069, USA",2
12034459,34.113579,-118.305318,"2300 N Hobart Blvd, Los Angeles, CA 90027, USA",2
12052578,34.172613,-118.280825,"1434 W Kenneth Rd, Glendale, CA 91201, USA",3
12075254,34.194075,-118.201904,"4190 Hampstead Rd, La Cañada Flintridge, CA 91011, USA",2
12101910,34.130003,-118.136249,"928 S El Molino Ave, Pasadena, CA 91106, USA",2
12109158,34.16016,-118.126574,"822 Mar Vista Ave, Pasadena, CA 91104, USA",2
12129632,34.17093,-118.041323,"524 Oakdale Dr, Sierra Madre, CA 91024, USA",3
12132419,34.166573,-118.056128,"134 W Grand View Ave, Sierra Madre, CA 91024, USA",2
12137996,34.135088,-118.055141,"437 S Baldwin Ave, Arcadia, CA 91007, USA",1
12146805,34.112032,-118.022668,"2328 S 3rd Ave, Arcadia, CA 91006, USA",1
12163715,34.189735,-118.147578,"78 E Harriet St, Altadena, CA 91001, USA",2
12165499,34.177849,-118.139273,"1845 N Madison Ave, Pasadena, CA 91104, USA",1
12166067,34.183869,-118.13693,"652 Colman St, Altadena, CA 91001, USA",1
12166450,34.190304,-118.13947,"481 E Mariposa St, Altadena, CA 91001, USA",2
12174223,34.176759,-118.099776,"1782 Coolidge Ave, Altadena, CA 91001, USA",2
12182527,33.982186,-118.28705,"6265 S Hoover St, Los Angeles, CA 90044, USA",2
12194453,33.969208,-118.305581,"7726 La Salle Ave, Los Angeles, CA 90047, USA",2
12223246,33.946243,-118.305572,"9816 La Salle Ave, Los Angeles, CA 90047, USA",2
12265571,33.901729,-118.246913,"813 N Tajauta Ave, Compton, CA 90220, USA",2
12266331,33.904801,-118.237914,"1300 N Wilmington Ave, Compton, CA 90222, USA",3
12269083,33.922495,-118.252129,"12112 Elva Ave, Los Angeles, CA 90059, USA",1
12298777,33.962814,-118.224935,"8271 Long Beach Blvd, South Gate, CA 90280, USA",3
12320859,33.938088,-118.166617,"10132 Karmont Ave, South Gate, CA 90280, USA",1
12328951,33.939923,-118.140881,"90240, 11543 Paramount Blvd, Downey, CA 90241, United States",1
12342028,33.891994,-118.160913,"15532 Colorado Ave, Paramount, CA 90723, USA",3
12401655,33.886781,-118.005258,"16009 Barbata Rd, La Mirada, CA 90638, USA",1
12413565,33.871792,-118.046031,"13409 Destino Pl, Cerritos, CA 90703, USA",1
12414149,33.861765,-118.044082,"13511 Droxford St, Cerritos, CA 90703, USA",1
12434881,33.823278,-118.095812,"7036 E Peabody St, Long Beach, CA 90808, USA",2
12439095,33.815842,-118.072129,"3250 Lilly Ave, Long Beach, CA 90808, USA",1
12470856,33.846683,-118.154536,"4838 Obispo Ave, Lakewood, CA 90712, USA",3
12475663,33.867407,-118.14419,"6152 Oliva Ave, Lakewood, CA 90712, USA",1
12493988,33.822958,-118.118544,"3619 Radnor Ave, Long Beach, CA 90808, USA",2
12495449,33.813618,-118.126546,"5424 E Rosebay St, Long Beach, CA 90808, USA",1
12510018,33.798419,-118.142158,"2267 Pepperwood Ave, Long Beach, CA 90815, USA",2
12513905,33.789778,-118.126434,"1865 Montair Ave, Long Beach, CA 90815, USA",2
12516056,33.803508,-118.117763,"5840 E Walton St, Long Beach, CA 90815, USA",2
12519636,33.794143,-118.09283,"2115 Pattiz Ave, Long Beach, CA 90815, USA",1
12533325,33.766934,-118.135523,"285 Argonne Ave, Long Beach, CA 90803, USA",1
12590292,33.820207,-118.291984,"22607 Doble Ave, Torrance, CA 90502, USA",1
12608492,33.820218,-118.322471,"2270 Sepulveda Blvd, Torrance, CA 90501, USA",2
12621695,33.809624,-118.297053,"1154 Oakheath Dr, Harbor City, CA 90710, USA",1
12629111,33.77357,-118.276977,"1217 W D St, Wilmington, CA 90744, USA",2
12644601,33.746676,-118.301957,"426 N Hanford Ave, San Pedro, CA 90732, USA",1
12655536,33.717573,-118.288576,"2914 S Denison Ave, San Pedro, CA 90731, USA",3
12657405,33.720557,-118.303405,"1205 W 26th St, San Pedro, CA 90731, USA",1
12666722,33.827885,-118.377135,"830 Knob Hill Ave, Redondo Beach, CA 90277, USA",1
12682981,33.801014,-118.351063,"24416 Hawthorne Blvd, Torrance, CA 90505, USA",3
12683050,33.803753,-118.356103,"4059 Newton St, Torrance, CA 90505, USA",2
12695215,33.786009,-118.314215,"26032 Eshelman Ave, Lomita, CA 90717, USA",2
12699507,33.746112,-118.321388,"6415 Corsini Pl, Rancho Palos Verdes, CA 90275, USA",1
12708176,33.758932,-118.392205,"6520 Sattes Dr, Rancho Palos Verdes, CA 90275, USA",3
12734102,33.912454,-117.99308,"15817 Hazelcrest Dr, La Mirada, CA 90638, USA",1
12739960,33.908157,-118.026928,"14310 Pioche Dr, La Mirada, CA 90638, USA",1
12740396,33.910717,-118.032515,"13229 Sunnybrook Ln, La Mirada, CA 90638, USA",1
12754296,33.897628,-118.069353,"14633 Helwig Ave, Norwalk, CA 90650, USA",1
12755348,33.896446,-118.080069,"14811 Clarkdale Ave, Norwalk, CA 90650, USA",1
12801961,33.97463,-118.05306,"11850 Whittier Blvd, Whittier, CA 90606, USA",1
12849154,33.969519,-117.887757,"18928 Amberly Pl, Rowland Heights, CA 91748, USA",2
12867092,34.10509,-117.717012,"1145 Harvard Ave N, Claremont, CA 91711, USA",1
12877292,34.041754,-117.730851,"1239 E Franklin Ave, Pomona, CA 91766, USA",3
12883229,34.071454,-117.750625,"172 Garfield Ave, Pomona, CA 91767, USA",2
12886562,34.037046,-117.755355,"637 W Lexington Ave, Pomona, CA 91766, USA",2
12908526,34.078093,-117.824183,"1776 Paseo Feliz, San Dimas, CA 91773, USA",1
12911036,34.097867,-117.842652,"4709 N Glen Arden Ave, Covina, CA 91724, USA",2
12913152,34.099671,-117.878426,"621 E Covina Blvd, Covina, CA 91722, USA",2
12936871,34.073474,-117.908807,"1726 E Shamwood St, West Covina, CA 91791, USA",2
12942421,34.052042,-117.963142,"14426 W Fairgrove Ave, La Puente, CA 91744, USA",2
12946678,34.043552,-117.953244,"15009 Dancer St, La Puente, CA 91744, USA",2
12954387,34.05131,-117.913452,"1524 Mcwood St, West Covina, CA 91791, USA",2
12967668,34.161656,-117.999503,"144 E Scenic Dr, Monrovia, CA 91016, USA",1
12972976,34.124665,-117.986282,"890 Beckville St, Duarte, CA 91010, USA",1
12976863,34.09461,-118.003821,"5215 Cogswell Rd, El Monte, CA 91732, USA",1
12983567,34.07741,-118.017147,"11714 Bryant Rd, El Monte, CA 91732, USA",1
12996823,34.087171,-118.021374,No result,0
13010095,34.09018,-118.064101,"4851 Alessandro Ave, Temple City, CA 91780, USA",1
13034042,34.127768,-117.867649,"633 S Vermont Ave, Glendora, CA 91740, USA",1
13040966,34.126093,-117.829247,"720 Cordelia Ave, Glendora, CA 91740, USA",2
13066851,34.034407,-117.761676,"2 Deer Creek Rd, Pomona, CA 91766, USA",2
13078594,34.020366,-117.859562,"311 Centinary Dr, Walnut, CA 91789, USA",1
13834623,33.762799,-117.892434,"1719 W 17th St, Santa Ana, CA 92706, USA",2
13837586,33.768617,-117.859142,"2412 Oakmont Ave, Santa Ana, CA 92706, USA",3
13844137,33.733492,-117.879565,"1125 S Towner St, Santa Ana, CA 92707, USA",1
13850164,33.942224,-117.963581,"1100 Edgemont St, La Habra, CA 90631, USA",3
13850862,33.94301,-117.939901,"11111 Magda Ln, La Habra, CA 90631, USA",2
13854625,33.922047,-117.941769,"350 Grace Ave, La Habra, CA 90631, USA",3
13866505,33.884409,-117.931831,"1114 N Glenhaven Ave, Fullerton, CA 92835, USA",3
13869812,33.873241,-117.952521,"324 Elizabeth Way, Fullerton, CA 92833, USA",2
13879588,33.844089,-117.89506,"1711 E Redwood Ave, Anaheim, CA 92805, USA",2
13882822,33.832988,-117.906621,"402 S Kroeger St, Anaheim, CA 92805, USA",1
13890219,33.624343,-117.917087,"537 El Modena Ave, Newport Beach, CA 92663, USA",2
13897530,33.434457,-117.614533,"202 Avenida La Cuesta, San Clemente, CA 92672, USA",3
13902898,33.889207,-117.992,"8125 Firth Green, Buena Park, CA 90621, USA",3
13903894,33.840134,-118.022929,"6480 San Marcos Way, Buena Park, CA 90620, USA",2
13905008,33.835642,-118.015397,"6742 San Benito Way, Buena Park, CA 90620, USA",1
13921065,33.81093,-117.998523,"10420 College Dr, Stanton, CA 90680, USA",2
13926295,33.779292,-118.083013,"2901 Walker Lee Dr, Los Alamitos, CA 90720, USA",2
13927148,33.794288,-118.085804,"2652 Coleridge Dr, Los Alamitos, CA 90720, USA",2
13930081,33.786618,-117.947436,"10621 Artcraft Ave, Garden Grove, CA 92840, USA",2
13945511,33.766712,-117.988213,"13472 Balos Dr, Garden Grove, CA 92844, USA",2
13954483,33.761843,-117.943186,"10661 Linnell Ave, Garden Grove, CA 92843, USA",3
13958292,33.749042,-117.927276,"4323 W 5th St, Santa Ana, CA 92703, USA",3
13961909,33.741273,-117.80609,"13200A Red Hill Ave, Tustin, CA 92780, USA",2
13971128,33.741297,-117.940185,"407 S Deming St, Santa Ana, CA 92704, USA",2
13980986,33.630003,-117.894018,"1409 Antigua Way, Newport Beach, CA 92660, USA",3
13989556,33.824241,-117.968894,"2421 W Random Dr, Anaheim, CA 92804, USA",2
13995272,33.812192,-117.951465,"1923 W Harriet Ln, Anaheim, CA 92804, USA",3
14037322,33.737801,-118.016563,"15442 Duke Cir, Huntington Beach, CA 92647, USA",3
14066914,33.711197,-118.023315,"17272 Avalon Ln, Huntington Beach, CA 92647, USA",2
14067536,33.713874,-118.030099,"17092 Twain Ln, Huntington Beach, CA 92649, USA",2
14071207,33.704319,-118.017531,"17742 Steiner Cir, Huntington Beach, CA 92647, USA",2
14081436,33.728171,-118.064802,"16080 Tortola Cir, Huntington Beach, CA 92649, USA",2
14087106,33.752723,-117.924442,"902 West St, Santa Ana, CA 92703, USA",3
14091474,33.770797,-118.021637,"6152 Klamath Dr, Westminster, CA 92683, USA",2
14096999,33.779248,-118.040855,"5262 Stanford Ave, Garden Grove, CA 92845, USA",1
14106778,33.812262,-118.03513,"10311 Lorraine Ln, Cypress, CA 90630, USA",1
14126509,33.851097,-118.013233,"6903 Thelma Ave, Buena Park, CA 90620, USA",3
14129543,33.843809,-117.873796,"2662 E Carnival Ave, Anaheim, CA 92806, USA",2
14133857,33.886687,-117.967728,"2453 Daphne Pl, Fullerton, CA 92833, USA",2
14138117,33.90237,-117.904069,"2831 Spruce Pl, Fullerton, CA 92835, USA",2
14146254,33.914745,-117.935601,"1407 Cheltenham Ln, La Habra, CA 90631, USA",1
14147359,33.901386,-117.92173,"603 Colonial Cir, Fullerton, CA 92835, USA",2
14160407,33.920921,-117.871385,No result,0
14168323,33.889652,-117.830343,"4918 Liverpool St, Yorba Linda, CA 92886, USA",2
14181609,33.87712,-117.849109,"636 N Muro Cir, Placentia, CA 92870, USA",1
14185655,33.877449,-117.823225,"5742 Casa Loma Ave, Yorba Linda, CA 92886, USA",2
14187088,33.87174,-117.818502,"212 Tanforan Ave, Placentia, CA 92870, USA",2
14195003,33.88927,-117.774029,"20600 Vía Escoba, Yorba Linda, CA 92886, USA",2
14198401,33.889894,-117.762559,"4984 Vía Alvarado, Yorba Linda, CA 92887, USA",1
14199015,33.888049,-117.766313,"21071 Paseo Rico, Yorba Linda, CA 92887, USA",1
14199606,33.880118,-117.759858,"21340 Vía Del Puma, Yorba Linda, CA 92887, USA",2
14203317,33.861516,-117.749678,"260 S Blackberry Ln, Anaheim, CA 92808, USA",1
14212764,33.829025,-117.818788,"2434 N Shadow Ridge Ln, Orange, CA 92867, USA",3
14227654,33.807511,-117.843915,"922 E Wilson Ave, Orange, CA 92867, USA",2
14234661,33.799915,-117.822435,"2902 E Oakmont Ave, Orange, CA 92867, USA",1
14244124,33.7895,-117.776341,"7214 E La Cumbre Dr, Orange, CA 92869, USA",2
14252599,33.762953,-117.882219,"2003 N Baker St, Santa Ana, CA 92706, USA",1
14253415,33.755463,-117.840459,"1241 Cabrillo Park Dr, Santa Ana, CA 92701, USA",2
14262312,33.724963,-117.898939,"1629 S Diamond St, Santa Ana, CA 92704, USA",2
14286117,33.725915,-117.822547,"14651 Westfall Rd, Tustin, CA 92780, USA",2
14294436,33.636323,-117.876992,"2200 Vista Hogar, Newport Beach, CA 92660, USA",1
14296412,33.620457,-117.864061,"18 Cypress Point Ln, Newport Beach, CA 92660, USA",2
14300167,33.695736,-117.774299,"6 Springfield, Irvine, CA 92604, USA",2
14314602,33.606531,-117.86612,"11 Seafaring Dr, Corona Del Mar, CA 92625, USA",2
14322910,33.661692,-117.781072,"9 Kelsey, Irvine, CA 92618, USA",1
14350351,33.74128,-117.767987,"32 Copperleaf, Irvine, CA 92602, USA",1
14362836,33.684278,-117.650832,"53 Parrell Ave, Foothill Ranch, CA 92610, USA",3
14363867,33.682314,-117.62796,"19262 Sycamore Glen Dr, Trabuco Canyon, CA 92679, USA",2
14372719,33.64589,-117.706383,"21861 Huron Ln, Lake Forest, CA 92630, USA",2
14377073,33.617521,-117.70842,"23722 Cavanaugh Rd, Lake Forest, CA 92630, USA",1
14393085,33.559653,-117.73089,"10 Somerset Dr, Aliso Viejo, CA 92656, USA",2
14395073,33.557098,-117.705018,"27922 Niguel Heights Blvd, Laguna Niguel, CA 92677, USA",2
14406471,33.510888,-117.662053,"31134 Via San Vicente, San Juan Capistrano, CA 92675, USA",1
14406724,33.51961,-117.681484,"1 St Vincent, Laguna Niguel, CA 92677, USA",2
14416150,33.543333,-117.697394,"24756 Via Carlos, Laguna Niguel, CA 92677, USA",3
14435286,33.463216,-117.645162,"2 San Remo, San Clemente, CA 92673, USA",2
14451682,33.412213,-117.609358,"404 W Avenida De Los Lobos Marinos, San Clemente, CA 92672, USA",2
14478927,33.598007,-117.643023,"25252 Darlington, Mission Viejo, CA 92692, USA",3
14480694,33.620998,-117.579875,"23541 Ave La Caza, Trabuco Canyon, CA 92679, USA",1
14483626,33.639664,-117.62346,"7 San Pablo, Rancho Santa Margarita, CA 92688, USA",2
14486769,33.605493,-117.65107,"24731 Via San Fernando, Mission Viejo, CA 92692, USA",2
14497270,33.649568,-117.594736,"18 La Cincha, Rancho Santa Margarita, CA 92688, USA",2
14500535,33.643686,-117.637282,"21932 Birchwood, Mission Viejo, CA 92692, USA",3
14502788,33.649493,-117.611948,"14 Ametrine Way, Rancho Santa Margarita, CA 92688, USA",3
14503794,33.644358,-117.648048,"21942 Camargo, Mission Viejo, CA 92691, USA",3
17138354,34.237598,-119.013229,"1961 Del Ciervo Pl, Camarillo, CA 93012, USA",1
12712549,33.759999,-118.387163,"19 Anacapa, Rolling Hills Estates, CA 90274, USA",1
13996590,33.83154,-117.956003,"137 S Linhaven Cir, Anaheim, CA 92804, USA",1
14461093,33.567688,-117.582409,"21 River Rock Dr, Coto De Caza, CA 92679, USA",2
17084114,34.266765,-119.228124,"4831 Templeton St, Ventura, CA 93003, USA",1
11178590,34.455088,-118.63069,"28429 Gibraltar Ln, Castaic, CA 91384, USA",3
11186088,34.62757,-118.210116,"4505 W Ave N 4, Palmdale, CA 93551, USA",3
10979527,34.301903,-118.416234,"13001 Maclay St, Sylmar, CA 91342, USA",1
14464607,33.556231,-117.633424,"25 Bellflower St, Ladera Ranch, CA 92694, USA",1
11186607,34.622407,-118.194884,"3618 Tournament Dr, Palmdale, CA 93551, USA",1
17130243,34.234163,-119.013913,"4584 Via Dulce, Camarillo, CA 93012, USA",1
14135244,33.885406,-117.958149,"2026 Northam Dr, Fullerton, CA 92833, USA",2
14456778,33.554238,-117.642991,"29 Longfield Ln, Mission Viejo, CA 92694, USA",1
13894075,33.593179,-117.870093,"229 Orchid Ave, Corona Del Mar, CA 92625, USA",3
11115170,34.437739,-118.555334,"27403 Westover Way, Santa Clarita, CA 91354, USA",1
11323686,34.569416,-118.175264,"2743 Senna Ln, Palmdale, CA 93551, USA",1
13956127,33.767162,-117.931032,"11355 Trask Ave, Garden Grove, CA 92843, USA",1
17092376,34.274892,-119.181569,"624 Montgomery Ave, Ventura, CA 93004, USA",2
11232876,34.545561,-118.039067,"5089 Nightsky Pl, Palmdale, CA 93552, USA",1
13851178,33.944623,-117.956288,"1400 Carol St, La Habra, CA 90631, USA",2
14069005,33.710921,-118.046997,"4671 Wellfleet Dr, Huntington Beach, CA 92649, USA",3
17071506,34.299793,-119.208124,"1183 Colina Vista, Ventura, CA 93003, USA",2
17087071,34.282485,-119.210532,"6353 Loma Vista Rd, Ventura, CA 93003, USA",2
17087738,34.270591,-119.22452,"460 Bucknell Ave, Ventura, CA 93003, USA",3
17088153,34.275951,-119.217379,"5670 Telegraph Rd, Ventura, CA 93003, USA",1
17115663,34.263361,-119.209395,"6098 Sparrow St, Ventura, CA 93003, USA",3
17131641,34.213575,-119.051915,"1446 Sevilla St, Camarillo, CA 93010, USA",2
17136078,34.221463,-119.030542,"2906 Knight Rondo, Camarillo, CA 93010, USA",2
17141405,34.227874,-118.992273,"5548 Birchview Ln, Camarillo, CA 93012, USA",2
17168389,34.167094,-119.177422,"3624 Samuel Ave, Oxnard, CA 93033, USA",3
17182255,34.180595,-119.147619,"2221 Gershwin Pl, Oxnard, CA 93033, USA",1
17223133,34.238428,-118.814578,"112 Marblehead St, Simi Valley, CA 93065, USA",1
17225628,34.228625,-118.793376,"642 Rustic Hills Dr, Simi Valley, CA 93065, USA",2
17228090,34.2834,-118.735036,"2659 Samantha Ct, Simi Valley, CA 93063, USA",2
17233813,34.279931,-118.721229,"2429 N Woodhaven Ct, Simi Valley, CA 93063, USA",2
17244634,34.273321,-118.762477,"1835 Hillary Ct, Simi Valley, CA 93065, USA",3
17247128,34.258195,-118.738765,"2925 Fletcher St, Simi Valley, CA 93065, USA",2
17248807,34.250952,-118.766273,"1707 Sunnydale Ave, Simi Valley, CA 93065, USA",1
17264167,34.176069,-118.934757,"150 W Kelly Rd, Thousand Oaks, CA 91320, USA",2
17267703,34.183318,-118.935788,"2807 Michael Dr, Thousand Oaks, CA 91320, USA",1
17277170,34.174008,-118.910325,"221 S Ventu Park Rd, Newbury Park, CA 91320, USA",2
17278651,34.21902,-118.863948,"2904 Calle Estepa, Thousand Oaks, CA 91360, USA",1
17286996,34.244342,-118.790995,"283 Longbranch Rd, Simi Valley, CA 93065, USA",2
17291210,34.195497,-118.805445,"4910 Coyote Wells Cir, Westlake Village, CA 91362, USA",1
10719832,34.205022,-118.617559,"7408 Capistrano Ave, West Hills, CA 91307, USA",1
10720461,34.204002,-118.607551,"22041 Leadwell St, Canoga Park, CA 91303, USA",1
10724427,34.204269,-118.650844,"24122 Hillhurst Dr, West Hills, CA 91307, USA",2
10728123,34.192089,-118.65,"24030 Archwood St, West Hills, CA 91307, USA",1
10781546,34.194391,-118.541947,"6823 Rhea Ave, Reseda, CA 91335, USA",1
10850140,34.175023,-118.517018,"17614 Rhoda St, Encino, CA 91316, USA",2
10872306,34.218878,-118.416132,"8138 Morse Ave, North Hollywood, CA 91605, USA",1
10873619,34.209902,-118.398878,"12160 Keswick St, North Hollywood, CA 91605, USA",1
10880407,34.19782,-118.390306,"11809 Hart St, North Hollywood, CA 91605, USA",3
10884566,34.197298,-118.427862,"13538 Hart St, Van Nuys, CA 91405, USA",2
10909396,34.143822,-118.374481,"4150 Fair Ave, Studio City, CA 91602, USA",1
10916979,34.127886,-118.390034,"3205 Oakdell Ln, Studio City, CA 91604, USA",1
10933274,34.149988,-118.348878,"4367 Clybourn Ave, Toluca Lake, CA 91602, USA",2
10935980,34.173843,-118.354131,"4001 W Burbank Blvd, Burbank, CA 91505, USA",2
10960178,34.161479,-118.336754,"406 N Fairview St, Burbank, CA 91505, USA",1
10980350,34.282069,-118.411776,"12812 Montford St, Pacoima, CA 91331, USA",2
10984360,34.280213,-118.407194,"12571 Mercer St, Pacoima, CA 91331, USA",1
10987297,34.26907,-118.404316,"10940 Fellows Ave, Pacoima, CA 91331, USA",1
11013136,34.282553,-118.483884,"16140 Armstead St, Granada Hills, CA 91344, USA",2
11017535,34.293377,-118.46602,"12215 Crest Ave, Sylmar, CA 91342, USA",1
11035467,34.23945,-118.435081,"9329 Canterbury Ave, Arleta, CA 91331, USA",3
11051960,34.256686,-118.483036,"16111 Tuba St, North Hills, CA 91343, USA",2
11063177,34.248881,-118.503196,"17020 Labrador St, Los Angeles, CA 91325, USA",2
11092960,34.239145,-118.515947,"9247 Encino Ave, Northridge, CA 91325, USA",1
11094454,34.234367,-118.538289,"18604 Sunburst St, Northridge, CA 91324, USA",1
11097012,34.22295,-118.583656,"8420 Lurline Ave, Canoga Park, CA 91306, USA",1
11104830,34.41818,-118.469629,"19130 Stillmore St, Canyon Country, CA 91351, USA",2
11105099,34.42183,-118.467762,"19009 Drycliff St, Canyon Country, CA 91351, USA",1
11106767,34.425011,-118.492923,"20434 Cedarcreek St, Santa Clarita, CA 91351, USA",1
11129043,34.283324,-118.556247,"19400 Cypress Point Dr, Northridge, CA 91326, USA",1
11152563,34.401838,-118.467383,"18836 Vista Del Canon, Santa Clarita, CA 91321, USA",1
11163336,34.383549,-118.548086,"23634 Vía Corsa, Santa Clarita, CA 91355, USA",2
11200620,34.574448,-118.107056,"38060 12th St E, Palmdale, CA 93550, USA",1
11201397,34.580773,-118.106918,"38444 12th St E, Palmdale, CA 93550, USA",1
11204668,34.572481,-118.090842,"2120 E Ave R, Palmdale, CA 93550, USA",2
11206077,34.56854,-118.070313,"3240 Sunridge Ct, Palmdale, CA 93550, USA",1
11207092,34.571623,-118.069605,"37912 Durango Pl, Palmdale, CA 93550, USA",1
11211861,34.576121,-118.054851,"38142 42nd St E, Palmdale, CA 93552, USA",1
11212307,34.562939,-118.029347,"37460 56th St E, Palmdale, CA 93552, USA",1
11230773,34.525754,-117.997781,"7332 Ave U-2, Littlerock, CA 93543, USA",1
11249090,34.629565,-117.815556,"41105 177th St E, Lancaster, CA 93535, USA",1
11262795,34.649024,-118.213135,"4704 W Ave L 12, Lancaster, CA 93536, USA",2
11281525,34.670066,-118.161928,"43321 17th St W, Lancaster, CA 93534, USA",3
11286298,34.688787,-118.138158,"44351 Cedar Ave, Lancaster, CA 93534, USA",3
11299983,34.695913,-118.076927,"3012 Via De Flores, Lancaster, CA 93535, USA",2
11300104,34.676423,-118.078979,"43639 Santa Rosa Cir, Lancaster, CA 93535, USA",1
11301536,34.692818,-118.091372,"44541 Byron Dr, Lancaster, CA 93535, USA",1
11343508,34.458052,-118.526993,"22422 Paragon Dr, Santa Clarita, CA 91350, USA",2
11344200,34.453734,-118.514679,"21713 Jeffers Ln, Santa Clarita, CA 91350, USA",1
11369395,34.755708,-117.912606,"47918 120th St E, Lancaster, CA 93535, USA",2
11413369,33.933164,-118.332252,"3419 W 112th St, Inglewood, CA 90303, USA",2
11448899,33.859793,-118.315412,"18820 Wilton Pl, Torrance, CA 90504, USA",3
11462468,33.963507,-118.426968,"7418 W 80th St, Los Angeles, CA 90045, USA",2
11494185,33.859836,-118.382024,"1728 Carlson Ln, Redondo Beach, CA 90278, USA",2
11497657,33.882104,-118.378062,"1907 Perry Ave, Redondo Beach, CA 90278, USA",2
11499482,33.891855,-118.391874,"1821 N Meadows Ave, Manhattan Beach, CA 90266, USA",2
11504451,33.900658,-118.403703,"3517 Pacific Ave, Manhattan Beach, CA 90266, USA",2
11513334,33.856043,-118.386081,"517 Anita St, Redondo Beach, CA 90278, USA",2
11522849,34.008826,-118.3997,"10749 Farragut Dr, Culver City, CA 90230, USA",1
11536149,33.984601,-118.464451,"452 Howland Canal, Venice, CA 90291, USA",2
11541801,33.992455,-118.419561,"12226 Culver Blvd, Los Angeles, CA 90066, USA",1
11555954,34.030598,-118.428806,No result,0
11559262,34.037406,-118.422438,"10716 Ashby Ave, Los Angeles, CA 90064, USA",1
11580397,34.039802,-118.49712,"358 18th St, Santa Monica, CA 90402, USA",1
11589378,33.999814,-118.47464,"204 Rennie Ave, Venice, CA 90291, USA",1
11599269,34.039958,-118.384051,"8854 Cadillac Ave, Los Angeles, CA 90034, USA",3
11628108,34.065807,-118.386459,"136 S La Peer Dr, Beverly Hills, CA 90211, USA",3
11660845,34.055527,-118.495719,"1450 Allenford Ave, Los Angeles, CA 90049, USA",2
11662528,34.033459,-118.514803,"400 Amalfi Dr, Pacific Palisades, CA 90272, USA",2
11679266,34.038229,-118.652626,"21942 Pacific Coast Hwy, Malibu, CA 90265, USA",3
11690418,34.042552,-118.908236,"33608 Pacific Coast Hwy, Malibu, CA 90265, USA",3
11691564,34.081102,-118.509273,"2508 Pesquera Dr, Los Angeles, CA 90049, USA",1
11710629,34.006373,-118.329351,"4282 Creed Ave, Los Angeles, CA 90008, USA",2
11715305,34.018816,-118.325433,"3741 Hepburn Ave, Los Angeles, CA 90018, USA",2
11715858,34.017207,-118.320727,"3829 3rd Ave, Los Angeles, CA 90008, USA",1
11739645,34.041491,-118.343256,"4800 Pickford St, Los Angeles, CA 90019, USA",2
11755659,34.058412,-118.354247,"926 Masselin Ave, Los Angeles, CA 90036, USA",1
11798936,34.052689,-118.207566,"2131 Judson St, Los Angeles, CA 90033, USA",2
11814568,34.063904,-118.187839,"1830 N Rowan Ave, Los Angeles, CA 90032, USA",1
11822109,34.050941,-118.183129,"1213 Coates Ave, Los Angeles, CA 90063, USA",2
11840258,34.067883,-118.123911,"525 N Garfield Ave, Monterey Park, CA 91754, USA",2
11842772,34.0583,-118.128579,"344 S Ynez Ave, Monterey Park, CA 91754, USA",1
11851522,34.025063,-118.134783,"2949 Via San Carlo, Montebello, CA 90640, USA",1
11882403,34.112995,-118.144296,"1127 Milan Ave, South Pasadena, CA 91030, USA",2
11884905,34.102312,-118.136799,"844 N Curtis Ave, Alhambra, CA 91801, USA",2
11888665,34.129043,-118.127328,"1049 Oak Grove Pl, San Marino, CA 91108, USA",2
11889003,34.12306,-118.110424,"1354 Bedford Rd, San Marino, CA 91108, USA",2
11934845,34.073314,-118.263191,"1734 1/4 Kent St, Los Angeles, CA 90026, USA",1
11941650,34.08786,-118.266674,"1640 Angelus Ave, Los Angeles, CA 90026, USA",2
11946874,34.090708,-118.267387,"1761 Silver Lake Blvd, Los Angeles, CA 90026, USA",2
11946897,34.092176,-118.266627,"1850 W Silver Lake Dr, Los Angeles, CA 90026, USA",3
11974935,34.13263,-118.188183,"6139 Buena Vista Terrace, Los Angeles, CA 90042, USA",2
11978851,34.111262,-118.185127,"350 S Ave 63, Los Angeles, CA 90042, USA",2
12022532,34.100292,-118.386553,"1518 Blue Jay Way, Los Angeles, CA 90069, USA",2
12046586,34.200022,-118.226388,"3320 Sparr Blvd, Glendale, CA 91208, USA",2
12047291,34.187856,-118.228867,"2834 Canada Blvd, Glendale, CA 91208, USA",2
12050222,34.184735,-118.283659,"1926 W Mountain St, Glendale, CA 91201, USA",1
12059097,34.168635,-118.26318,"1440 N Columbus Ave, Glendale, CA 91202, USA",2
12060674,34.158504,-118.273268,"746 Burchett St, Glendale, CA 91202, USA",2
12126825,34.164843,-118.069329,"3850 Cartwright St, Pasadena, CA 91107, USA",2
12128808,34.169694,-118.056303,"204 W Carter Ave, Sierra Madre, CA 91024, USA",1
12134749,34.156174,-118.026408,"1291 Oakglen Ave, Arcadia, CA 91006, USA",2
12137674,34.135296,-118.065035,"508 Cortez Rd, Arcadia, CA 91007, USA",1
12146460,34.115239,-118.020225,"501 Coyle Ave, Arcadia, CA 91006, USA",2
12147289,34.118692,-118.016813,"1819 Seventh Pl, Arcadia, CA 91006, USA",1
12153057,34.215197,-118.203103,"1114 Green Ln, La Cañada Flintridge, CA 91011, USA",2
12155967,34.207228,-118.17948,"5248 Stardust Rd, La Cañada Flintridge, CA 91011, USA",2
12158058,34.191004,-118.162914,"617 Mountain View St, Altadena, CA 91001, USA",3
12158273,34.182106,-118.155736,"237 Laun St, Altadena, CA 91001, USA",2
12178807,34.240324,-118.224986,"5721 Canyonside Rd, La Crescenta, CA 91214, USA",2
12189265,33.976751,-118.274653,"119 W 70th St, Los Angeles, CA 90003, USA",2
12221059,33.948049,-118.264938,"9708 S Avalon Blvd, Los Angeles, CA 90003, USA",2
12225889,33.939746,-118.302054,"1440 W 106th St, Los Angeles, CA 90047, USA",1
12229498,33.940846,-118.236195,"2015 E 105th St, Los Angeles, CA 90002, USA",1
12245194,33.881786,-118.305802,"1636 W Gardena Blvd, Gardena, CA 90247, USA",3
12257745,33.907641,-118.267994,"349 E 137th St, Los Angeles, CA 90061, USA",1
12258640,33.920458,-118.279047,"319 W 124th St, Los Angeles, CA 90061, USA",2
12268219,33.917854,-118.248071,"1503 E 127th St, Compton, CA 90222, USA",1
12269038,33.92149,-118.249706,"1411 E 122nd Pl, Los Angeles, CA 90059, USA",1
12292342,33.920695,-118.197263,"3929 Fernwood Ave, Lynwood, CA 90262, USA",1
12309500,33.958533,-118.199446,"8432 San Luis Ave, South Gate, CA 90280, USA",3
12377346,34.013398,-118.095277,"267 E Beverly Terrace, Montebello, CA 90640, USA",1
12377659,34.00828,-118.092327,"4730 Grape St, Pico Rivera, CA 90660, USA",1
12381614,33.99036,-118.119612,"824 Date St, Montebello, CA 90640, USA",2
12385555,33.953844,-118.119756,"9800 Manzanar Ave, Downey, CA 90240, USA",1
12392184,33.995966,-118.0757,"9534 See Dr, Pico Rivera, CA 90660, USA",2
12396515,33.97655,-118.090605,"9510 Bert St, Pico Rivera, CA 90660, USA",3
12408313,33.885383,-118.08615,"11619 College Dr, Norwalk, CA 90650, USA",1
12415109,33.858858,-118.057223,"12860 Charlwood St, Cerritos, CA 90703, USA",1
12425220,33.852703,-118.072846,"19517 Fagan Way, Cerritos, CA 90703, USA",1
12436972,33.817881,-118.076774,"7930 E Tarma St, Long Beach, CA 90808, USA",2
12439542,33.818302,-118.091476,"7200 E Wardlow Rd, Long Beach, CA 90808, USA",3
12459218,33.844716,-118.19094,"238 E 49th St, Long Beach, CA 90805, USA",2
12462074,33.835857,-118.170767,"4244 Keever Ave, Long Beach, CA 90807, USA",1
12471380,33.845462,-118.149765,"3533 Deerford St, Lakewood, CA 90712, USA",2
12473939,33.850664,-118.159696,"2702 Denmead St, Lakewood, CA 90712, USA",1
12474719,33.854801,-118.14982,"3607 Camerino St, Lakewood, CA 90712, USA",1
12484043,33.848374,-118.12868,"4938 Lorelei Ave, Lakewood, CA 90712, USA",1
12495027,33.817142,-118.130199,"3314 Charlemagne Ave, Long Beach, CA 90808, USA",1
12497525,33.808834,-118.202854,"2851 Golden Ave, Long Beach, CA 90806, USA",1
12524923,33.776502,-118.12729,"760 Terraine Ave, Long Beach, CA 90804, USA",2
12526881,33.757498,-118.119779,"5839 Appian Way, Long Beach, CA 90803, USA",1
12562991,33.884871,-118.193255,"1228 S Washington Ave, Compton, CA 90221, USA",1
12569139,33.80884,-118.209872,"2842 Easy Ave, Long Beach, CA 90810, USA",1
12610128,33.812946,-118.315105,"2019 W 235th St, Torrance, CA 90501, USA",2
12612569,33.793342,-118.318072,"25402 Woodward Ave, Lomita, CA 90717, USA",1
12617139,33.799918,-118.211572,"2351 Delta Ave, Long Beach, CA 90810, USA",2
12672373,33.835232,-118.362556,"21317 Anza Ave, Torrance, CA 90503, USA",1
12708369,33.749203,-118.389902,"31429 Marne Dr, Rancho Palos Verdes, CA 90275, USA",1
12724204,33.921734,-118.094459,"12078 Graystone Ave, Norwalk, CA 90650, USA",2
12724918,33.919812,-118.087596,"12228 Roseton Ave, Norwalk, CA 90650, USA",1
12746796,33.90704,-118.082947,"11736 Senwood St, Norwalk, CA 90650, USA",1
12748335,33.90672,-118.032343,"14027 Mansa Dr, La Mirada, CA 90638, USA",1
12750268,33.897014,-117.990745,"16012 Formby Dr, La Mirada, CA 90638, USA",2
12757023,33.896917,-118.100697,"14712 Lefloss Ave, Norwalk, CA 90650, USA",1
12762774,33.889238,-118.003243,"15353 Hayford St, La Mirada, CA 90638, USA",1
12781401,33.991218,-118.060488,"10850 Orange Dr, Whittier, CA 90606, USA",1
12842042,34.026781,-117.921964,"16918 Millstone Dr, La Puente, CA 91744, USA",1
12843585,33.978424,-117.908373,"18208 Villa Clara St, Rowland Heights, CA 91748, USA",2
12863302,34.119112,-117.743497,"4243 Oak Hollow Rd, Claremont, CA 91711, USA",2
12890858,34.069223,-117.764369,No result,0
12907293,34.115543,-117.802695,"748 N Walnut Ave, San Dimas, CA 91773, USA",2
12912579,34.097994,-117.867478,"1012 N Cummings Rd, Covina, CA 91724, USA",2
12915055,34.103884,-117.914847,"17046 E Devanah St, Covina, CA 91722, USA",2
12915960,34.102748,-117.918029,"16809 E Groverdale St, Covina, CA 91722, USA",1
12920168,34.098361,-117.895854,"Cypress Park, 320 West Covina Boulevard, Covina, CA 91722, USA",1
12922629,34.087828,-117.857384,"1579 E Wanamaker Dr, Covina, CA 91724, USA",3
12944869,34.060382,-117.933292,"835 S Glendora Ave, West Covina, CA 91790, USA",2
12944907,34.06062,-117.933863,"839 S Glendora Ave, West Covina, CA 91790, USA",2
12956163,34.045593,-117.89701,"1555 S Alpine Dr, West Covina, CA 91791, USA",1
12982573,34.088806,-118.011559,"11742 Lower Azusa Rd, El Monte, CA 91732, USA",1
12987419,34.077881,-117.981755,"13339 Earl Ave, Baldwin Park, CA 91706, USA",2
12992464,34.052807,-117.979368,"13644 Giordano St, La Puente, CA 91746, USA",2
12995541,34.077059,-118.031659,"3740 Esmeralda Ave, El Monte, CA 91731, USA",2
13002493,34.069727,-118.035853,"3350 Tyler Ave, El Monte, CA 91731, USA",2
13003511,34.068588,-118.053949,"9849 Whitmore St, El Monte, CA 91733, USA",1
13011404,34.076626,-118.057322,"3726 Brookline Ave, Rosemead, CA 91770, USA",2
13044566,34.135694,-117.825813,"110 Glengrove Ave, Glendora, CA 91741, USA",1
13064950,34.03686,-117.795783,"1121 Golden Springs Dr, Diamond Bar, CA 91765, USA",2
13081521,34.012125,-117.872574,"3308 E Millridge Dr, West Covina, CA 91792, USA",1
13086646,34.02117,-117.892318,"2437 E Alicia St, West Covina, CA 91792, USA",1
13094683,34.042255,-117.926822,"1331 N Applewood Ln, La Puente, CA 91744, USA",1
13097929,33.990427,-117.894515,"1441 Paso Real Ave, Rowland Heights, CA 91748, USA",1
13101846,33.982738,-117.84637,"21027 Quail Run Dr, Walnut, CA 91789, USA",1
13844714,33.727985,-117.879182,No result,0
13848052,33.722814,-117.87907,No result,0
13853096,33.938206,-117.970471,"2220 Foxdale Dr, La Habra, CA 90631, USA",2
13858200,33.676598,-117.999608,"1925 Pine St, Huntington Beach, CA 92648, USA",1
13858353,33.674435,-117.999689,"1815 Pine St, Huntington Beach, CA 92648, USA",1
13859028,33.6687,-118.011358,"406A 19th St, Huntington Beach, CA 92648, USA",1
13860683,33.681602,-118.023695,"6161 Oakbrook Cir, Huntington Beach, CA 92648, USA",1
13864851,33.679886,-117.993321,"2513 Delaware St, Huntington Beach, CA 92648, USA",2
13906981,33.852136,-117.985358,"8481 Carnation Dr, Buena Park, CA 90620, USA",2
13907511,33.840528,-117.990301,"8196 Lemon Cir, Buena Park, CA 90620, USA",1
13919367,33.821034,-118.001971,"800 S Western Ave, Anaheim, CA 92804, USA",2
13942099,33.761219,-117.99055,"13831 Manor Dr, Westminster, CA 92683, USA",2
13953102,33.768625,-117.943948,"10622 Dorothy Ave, Garden Grove, CA 92843, USA",3
13960070,33.766277,-117.899201,"2210 Laird St, Santa Ana, CA 92706, USA",2
13970377,33.743348,-117.937883,"5210 W Henderson Pl, Santa Ana, CA 92704, USA",2
13980426,33.628545,-117.899687,"1301 Marian Ln, Newport Beach, CA 92660, USA",1
13989158,33.828432,-117.968812,"2420 W Broadway, Anaheim, CA 92804, USA",2
13996424,33.812264,-117.955206,"2109 W Harriet Ln, Anaheim, CA 92804, USA",3
14018842,33.689401,-117.928114,"3249 Colorado Ln, Costa Mesa, CA 92626, USA",2
14035597,33.729146,-117.933275,"16120 Mt Hicks St, Fountain Valley, CA 92708, USA",3
14039722,33.723592,-118.036236,"16411 Del Mar Ln, Huntington Beach, CA 92649, USA",3
14042202,33.722944,-118.019084,"6262 Shayne Dr, Huntington Beach, CA 92647, USA",1
14060810,33.693795,-117.95581,No result,0
14064040,33.698845,-117.987663,"18152 Gleada Lane, Huntington Beach, CA 92646, USA",3
14077319,33.714579,-117.939304,"10905 El Domino Ave, Fountain Valley, CA 92708, USA",2
14097023,33.781397,-118.037231,"5461 Cerulean Ave, Garden Grove, CA 92845, USA",3
14118993,33.837313,-117.92654,"917 W Sycamore St, Anaheim, CA 92805, USA",3
14140123,33.888729,-117.911944,"848 Panorama Rd, Fullerton, CA 92831, USA",3
14142802,33.889264,-117.959734,"1533 Camino Centroloma, Fullerton, CA 92833, USA",2
14159360,33.92045,-117.890567,"647 Cottonwood Dr, Brea, CA 92821, USA",2
14173862,33.900313,-117.877477,"2525 Hartford Ave, Fullerton, CA 92835, USA",3
14180681,33.875583,-117.857169,"544 Colgate Dr, Placentia, CA 92870, USA",3
14218785,33.843193,-117.751631,"800 S Swallow Way, Anaheim, CA 92807, USA",2
14219921,33.815794,-117.775327,"7323 E Equitation Way, Orange, CA 92869, USA",2
14225034,33.81778,-117.837737,"1809 N Nordic Pl, Orange, CA 92865, USA",2
14230221,33.809057,-117.822177,"2907 E Coolidge Ave, Orange, CA 92867, USA",1
14231287,33.80713,-117.825857,"2612 E Wilson Ave, Orange, CA 92867, USA",2
14236118,33.791167,-117.837515,"1514 E Palm Ave, Orange, CA 92866, USA",1
14238946,33.781117,-117.837996,"479 Greengrove Dr, Orange, CA 92866, USA",1
14242259,33.782767,-117.809575,"382 S Wrightwood St, Orange, CA 92869, USA",3
14254119,33.755148,-117.823153,"17631 Orange Tree Ln, Tustin, CA 92780, USA",2
14274632,33.649627,-117.938476,"2074 Republic Ave, Costa Mesa, CA 92627, USA",1
14279779,33.628259,-117.917408,"356 Ramona Way, Costa Mesa, CA 92627, USA",2
14287570,33.7274,-117.815,No result,0
14311309,33.662443,-117.799706,"9 Dogwood S, Irvine, CA 92612, USA",2
14313704,33.602967,-117.856407,"1424 Sandcastle Dr, Corona Del Mar, CA 92625, USA",2
14320249,33.629843,-117.810919,"6252 Sierra Siena Rd, Irvine, CA 92603, USA",2
14333085,33.744971,-117.786958,"12350 Marlow Ave, Tustin, CA 92782, USA",1
14336382,33.770226,-117.769023,"10391 Mira Vista Dr, Santa Ana, CA 92705, USA",1
14348320,33.724643,-117.760592,"39 Parkcrest, Irvine, CA 92620, USA",2
14365366,33.658239,-117.696421,"20942 Calle Celeste, Lake Forest, CA 92630, USA",2
14365466,33.656407,-117.693922,"24982 Paseo Equestre, Lake Forest, CA 92630, USA",3
14390384,33.574023,-117.681355,"26781 Moore Oaks Rd, Laguna Hills, CA 92653, USA",2
14394851,33.562277,-117.704209,"24401 Opal Hill Ct, Laguna Niguel, CA 92677, USA",2
14410149,33.504321,-117.702447,"5 Derne Pl, Laguna Niguel, CA 92677, USA",2
14424841,33.489287,-117.63873,"28451 Calle Pinata, San Juan Capistrano, CA 92675, USA",1
14433354,33.491097,-117.691295,"8 Pacific Crest, Laguna Niguel, CA 92677, USA",2
14434069,33.494554,-117.695045,"38 Pembroke Ln, Laguna Niguel, CA 92677, USA",2
14445636,33.419598,-117.604022,"115 E Avenida De Los Lobos Marinos, San Clemente, CA 92672, USA",3
14460887,33.563194,-117.589263,"7 Ginger Lily Ct, Coto De Caza, CA 92679, USA",1
14472327,33.596369,-117.651024,"15 Mirino Dr, Mission Viejo, CA 92692, USA",3
14502282,33.647152,-117.619245,"27 Cll Gazapo, Rancho Santa Margarita, CA 92688, USA",1
14505447,33.657778,-117.646407,"27646 White Fir Ln, Mission Viejo, CA 92691, USA",1
10715682,34.215342,-118.615076,"7957 Shoup Ave, Canoga Park, CA 91304, USA",2
12141224,34.127223,-118.014469,"1200 S Ninth Ave, Arcadia, CA 91006, USA",1
17105813,34.245288,-119.089407,"2944 Patina Ct, Camarillo, CA 93010, USA",1
11266007,34.646316,-118.178497,"2656 Desert Rose Dr, Lancaster, CA 93536, USA",1
14321929,33.6249,-117.799155,"51 Copper Creek, Irvine, CA 92603, USA",3
11347358,34.460681,-118.502103,"20973 Canterwood Dr, Santa Clarita, CA 91350, USA",1
12894645,34.09837,-117.738528,"700 E Harrison Ave, Pomona, CA 91767, USA",3
17268700,34.14649,-118.852332,"1490 Cheviot Hills Ct, Westlake Village, CA 91361, USA",1
14292727,33.657588,-117.890622,"302 Salt Pond, Costa Mesa, CA 92627, USA",3
14353698,33.697842,-117.76111,"68 Bamboo, Irvine, CA 92620, USA",1
14458899,33.535481,-117.636355,"31 Kelly Ln, Mission Viejo, CA 92694, USA",1
11174901,34.499745,-118.620851,"31913 Cinnabar Ln, Castaic, CA 91384, USA",2
11306039,34.686733,-118.202927,"4034 Vía Barbara, Lancaster, CA 93536, USA",2
11307094,34.689121,-118.216697,"4757 Jade Ct, Lancaster, CA 93536, USA",3
11318081,34.681312,-118.238307,"6048 Starview Dr, Lancaster, CA 93536, USA",2
11318052,34.676065,-118.240678,"43649 Brandon Thomas Way, Lancaster, CA 93536, USA",2
17175065,34.147924,-119.192232,"615 E Port Hueneme Rd, Port Hueneme, CA 93041, USA",2
14455490,33.484431,-117.584579,"59 Via Regalo, San Clemente, CA 92673, USA",3
14208612,33.85912,-117.769296,"7360 E Calle Durango, Anaheim, CA 92808, USA",2
11232852,34.544033,-118.041208,"4925 Mountain View Dr, Palmdale, CA 93552, USA",1
12633004,33.78688,-118.252355,"1146 McFarland Ave, Wilmington, CA 90744, USA",2
12273354,33.91059,-118.233884,"2075 E Shauer St, Compton, CA 90222, USA",2
12973727,34.120338,-117.985629,"2399 Bateman Ave, Duarte, CA 91010, USA",2
14306949,33.680068,-117.782078,"11 Cresthaven, Irvine, CA 92604, USA",1
17053500,34.437938,-119.264085,"405 Descanso Ave, Ojai, CA 93023, USA",1
17057118,34.443929,-119.217146,No result,0
17082436,34.277397,-119.249831,"245 Lynn Dr, Ventura, CA 93003, USA",3
17090166,34.293436,-119.167866,"132 Alpine Ave, Ventura, CA 93004, USA",2
17094378,34.282196,-119.162168,"10440 Jamestown St, Ventura, CA 93004, USA",3
17127828,34.23584,-119.061247,"631 Corte Rosalinda, Camarillo, CA 93010, USA",2
17137700,34.240795,-119.017366,"4007 Vincente Ave, Camarillo, CA 93010, USA",3
17144126,34.235428,-118.971881,"6977 Quito Ct, Camarillo, CA 93012, USA",1
17145652,34.226364,-119.197801,"1820 Holly Ave, Oxnard, CA 93036, USA",2
17165442,34.184226,-119.191924,"1301 W Date St, Oxnard, CA 93033, USA",2
17176573,34.20711,-119.147092,"501 Calle Capistrano, Oxnard, CA 93030, USA",1
17177161,34.209039,-119.167294,"1201 Maria Way, Oxnard, CA 93030, USA",2
17193926,34.171954,-118.984905,"5198 Via Dolores, Thousand Oaks, CA 91320, USA",2
17201149,34.266569,-118.882074,"4212 Canario Ct, Moorpark, CA 93021, USA",1
17206989,34.29676,-118.854272,"14745 Reedley St, Moorpark, CA 93021, USA",1
17209035,34.216736,-118.897039,"748 San Martin Pl, Thousand Oaks, CA 91360, USA",2
17221340,34.269713,-118.806375,"1872 Autumn Pl, Simi Valley, CA 93065, USA",1
17221751,34.267861,-118.796164,"113 E Bonita Dr, Simi Valley, CA 93065, USA",2
17224144,34.228978,-118.84938,"1659 Calle De Oro, Thousand Oaks, CA 91360, USA",1
17232057,34.280367,-118.675017,"5968A Serena St, Simi Valley, CA 93063, USA",1
17261821,34.267902,-118.689891,"5267 Katherine St, Simi Valley, CA 93063, USA",3
10731473,34.179506,-118.615413,"22425 W Oxnard St, Woodland Hills, CA 91367, USA",3
10732307,34.173398,-118.615507,"22420 Martha St, Woodland Hills, CA 91367, USA",2
10758576,34.152194,-118.619959,"22580 Uhea Rd, Woodland Hills, CA 91364, USA",2
10768677,34.21896,-118.592262,"21036 Burton St, Canoga Park, CA 91304, USA",2
10770972,34.208008,-118.589148,"20926 Saticoy St, Canoga Park, CA 91304, USA",2
10775830,34.203633,-118.53993,"7325 Capps Ave, Reseda, CA 91335, USA",3
10778463,34.192589,-118.518476,"17654 Welby Way, Van Nuys, CA 91406, USA",1
10780998,34.200122,-118.541997,"7114 Geyser Ave, Reseda, CA 91335, USA",1
10786210,34.191555,-118.55923,"6644 Melvin Ave, Reseda, CA 91335, USA",3
10789066,34.198596,-118.581703,"7057 Sunny Brae Ave, Canoga Park, CA 91306, USA",2
10789173,34.198604,-118.583,"7034 Lurline Ave, Canoga Park, CA 91306, USA",1
10797254,34.185343,-118.566179,"6295 Lubao Ave, Woodland Hills, CA 91367, USA",3
10805781,34.166505,-118.546869,"5261 Topeka Dr, Tarzana, CA 91356, USA",2
10810050,34.151116,-118.601994,"4617 Galendo St, Woodland Hills, CA 91364, USA",2
10817036,34.155182,-118.529083,"18100 Karen Dr, Tarzana, CA 91356, USA",1
10825394,34.213122,-118.433612,"7840 Ranchito Ave, Van Nuys, CA 91402, USA",1
10860883,34.152504,-118.4349,"4472 Stern Ave, Sherman Oaks, CA 91423, USA",2
10861807,34.143763,-118.445842,"4025 Oakfield Dr, Sherman Oaks, CA 91423, USA",3
10867783,34.140599,-118.486728,"3836 Sapphire Dr, Encino, CA 91436, USA",2
10872445,34.217651,-118.416924,"13015 Lorne St, North Hollywood, CA 91605, USA",2
10881355,34.193105,-118.392633,"6735 Radford Ave, North Hollywood, CA 91606, USA",1
10894658,34.168993,-118.427601,"13523 Chandler Blvd, Sherman Oaks, CA 91401, USA",3
10895287,34.169759,-118.419798,"13173 Cumpston St, Sherman Oaks, CA 91401, USA",2
10913401,34.149653,-118.408183,"4336 Teesdale Ave, Studio City, CA 91604, USA",2
10915277,34.140487,-118.373158,"11100 Sunshine Terrace, Studio City, CA 91604, USA",2
10918355,34.143792,-118.416203,"13009 Greenleaf St, Studio City, CA 91604, USA",2
10924204,34.210814,-118.366907,"7718 Satsuma Ave, Sun Valley, CA 91352, USA",1
10935232,34.126392,-118.345855,"3157 Oakcrest Dr, Los Angeles, CA 90068, USA",3
10956921,34.170585,-118.345861,"1108 N Avon St, Burbank, CA 91505, USA",1
10974083,34.292602,-118.42218,"1112 Newton St, San Fernando, CA 91340, USA",2
10977163,34.28643,-118.447135,"1428 Celis St, San Fernando, CA 91340, USA",2
10990488,34.253533,-118.342549,"9680 Green Verdugo Dr, Sunland-Tujunga, CA 91040, USA",1
10996479,34.260538,-118.292657,No result,0
11006018,34.237564,-118.275726,"9309 La Shell Dr, Tujunga, CA 91042, USA",1
11013237,34.280298,-118.486824,"11527 Valjean Ave, Granada Hills, CA 91344, USA",1
11016009,34.287449,-118.491003,"16448 Buchet Dr, Granada Hills, CA 91344, USA",1
11018400,34.278632,-118.448049,"1112 Omelveny Ave, San Fernando, CA 91340, USA",1
11056210,34.262922,-118.49183,"10563 Odessa Ave, Granada Hills, CA 91344, USA",2
11059280,34.252677,-118.493054,"16534 Casey St, North Hills, CA 91343, USA",2
11063224,34.246961,-118.50681,"17141 Superior St, Northridge, CA 91325, USA",1
11065365,34.27432,-118.505543,"17125 Mc Keever St, Granada Hills, CA 91344, USA",2
11099699,34.221431,-118.561077,"19633 Schoenborn St, Northridge, CA 91324, USA",2
11101645,34.224013,-118.527279,"8443 Lindley Ave, Los Angeles, CA 91325, USA",2
11101881,34.224348,-118.529569,"18160 Chase St, Northridge, CA 91325, USA",3
11139226,34.372809,-118.53477,"24436 Cross St, Santa Clarita, CA 91321, USA",2
11148642,34.42573,-118.433817,"17050 Canvas St, Santa Clarita, CA 91387, USA",1
11152733,34.395612,-118.469172,"19116 Friendly Valley Pkwy, Santa Clarita, CA 91321, USA",1
11175226,34.499402,-118.63195,"28243 Royal Rd, Castaic, CA 91384, USA",1
11180473,34.279758,-118.540543,"11450 Amigo Ave, Northridge, CA 91326, USA",1
11183385,34.606727,-118.188538,"3309 Montellano Ave, Palmdale, CA 93551, USA",1
11184532,34.611511,-118.183013,"40124 30th St W, Palmdale, CA 93551, USA",1
11188483,34.60068,-118.167824,"2109 Willowbrook Ave, Palmdale, CA 93551, USA",1
11190032,34.599159,-118.160216,"1633 Berkshire Dr, Palmdale, CA 93551, USA",2
11212285,34.564067,-118.02884,"37537 Deville St, Palmdale, CA 93552, USA",2
11212560,34.571676,-118.025223,"37934 58th St E, Palmdale, CA 93552, USA",1
11260379,34.63505,-118.215242,"4723 W Ave M12, Lancaster, CA 93536, USA",2
11270122,34.661608,-118.190086,"42832 Beau Ville Ct, Lancaster, CA 93536, USA",1
11271289,34.669586,-118.180233,"2735 College Park Dr W, Lancaster, CA 93536, USA",2
11275358,34.707508,-118.160325,"45356 Lorimer Ave, Lancaster, CA 93534, USA",1
11278330,34.702074,-118.159727,"45103 16th St W, Lancaster, CA 93534, USA",2
11287602,34.710535,-118.141781,"45537 Corkwood Ave, Lancaster, CA 93534, USA",1
11296518,34.699224,-118.10732,"44926 Calston Ave, Lancaster, CA 93535, USA",1
11296618,34.694173,-118.094867,"1848 Sierra View Ave, Lancaster, CA 93535, USA",2
11304741,34.682698,-118.18654,"44015 31st St W, Lancaster, CA 93536, USA",1
11314411,34.70901,-118.124905,"45509 Foxton Ave, Lancaster, CA 93535, USA",2
11316925,34.687925,-118.239338,"44325 Hazel Ct, Lancaster, CA 93536, USA",1
11320322,34.651692,-118.24825,"42323 Daniel Dr, Lancaster, CA 93536, USA",1
11374435,34.716259,-117.689419,"24650 E Ave H 4, Lancaster, CA 93535, USA",1
11393822,33.977482,-118.32238,"6722 5th Ave, Los Angeles, CA 90043, USA",1
11402707,33.988245,-118.346273,"4101 W 58th Pl, Los Angeles, CA 90043, USA",2
11402806,33.987692,-118.3502,"4300 W 58th Pl, Los Angeles, CA 90043, USA",2
11417884,33.9334,-118.36463,"4938 W 111th Pl, Lennox, CA 90304, USA",2
11437723,33.888062,-118.340354,"3832 W 157th St, Lawndale, CA 90260, USA",1
11446713,33.87461,-118.335733,"3609 W 172nd St, Torrance, CA 90504, USA",1
11455921,33.96983,-118.383196,"5822 Abernathy Dr, Los Angeles, CA 90045, USA",2
11495528,33.862548,-118.384505,"1102 Harper Ave, Redondo Beach, CA 90278, USA",2
11537177,33.98553,-118.449135,"951 Princeton Dr, Marina Del Rey, CA 90292, USA",2
11537688,34.061288,-118.239592,"727 N Broadway, Los Angeles, CA 90012, USA",1
11544801,33.995622,-118.439283,"3952 Lyceum Ave, Los Angeles, CA 90066, USA",2
11553898,34.011554,-118.432655,"3501 Stoner Ave, Los Angeles, CA 90066, USA",1
11602706,34.050905,-118.39938,"9720 Holcomb St, Los Angeles, CA 90035, USA",2
11609942,34.03787,-118.415352,"10526 Troon Ave, Los Angeles, CA 90064, USA",2
11611321,34.054141,-118.420243,"10344 Mississippi Ave, Los Angeles, CA 90025, USA",2
11612728,34.048202,-118.428753,"2045 Pelham Ave, Los Angeles, CA 90025, USA",2
11613729,34.039806,-118.434451,"2302 Camden Ave, Los Angeles, CA 90064, USA",2
11621544,34.061591,-118.419778,"1725 Club View Dr, Los Angeles, CA 90024, USA",2
11636235,34.082846,-118.398678,"625 N Palm Dr, Beverly Hills, CA 90210, USA",1
11683516,34.040089,-118.769606,"4800 Latigo Canyon Rd, Malibu, CA 90265, USA",2
11688789,34.03086,-118.844114,"30760 Broad Beach Rd, Malibu, CA 90265, USA",2
11693830,33.995918,-118.285239,"635 W 52nd St, Los Angeles, CA 90037, USA",2
11699634,33.998414,-118.354253,"4838 Inadale Ave, Windsor Hills, CA 90043, USA",1
11711143,34.019911,-118.36263,"5388 Village Green, Los Angeles, CA 90016, USA",1
11711366,34.019618,-118.358626,"5172 1/2 Village Green, Los Angeles, CA 90016, USA",1
11734280,34.033317,-118.331451,"2530 13th Ave, Los Angeles, CA 90018, USA",2
11739768,34.041088,-118.34719,"1854 South La Brea Ave, Los Angeles, CA 90019, USA",3
11765078,34.001828,-118.268078,"443 46th St, Los Angeles, CA 90011, USA",2
11809958,34.083818,-118.199709,"3715 Rolle St, Los Angeles, CA 90031, USA",3
11839339,34.043128,-118.145956,"1161 Brightwood St, Monterey Park, CA 91754, USA",2
11855767,34.042512,-118.124441,"1882 Hendron Way, Monterey Park, CA 91755, USA",1
11880166,34.109783,-118.15756,"1325 Meridian Ave, South Pasadena, CA 91030, USA",1
11883482,34.110291,-118.146964,"1325 Marengo Ave, South Pasadena, CA 91030, USA",2
11884471,34.106096,-118.136676,"2102 Huntington Dr, South Pasadena, CA 91030, USA",2
11911470,34.090512,-118.105392,"925 S Anderson Way, San Gabriel, CA 91776, USA",2
11911785,34.088579,-118.103034,"212 S Circle Dr, San Gabriel, CA 91776, USA",1
11913803,34.110063,-118.112659,"821 W Roses Rd, San Gabriel, CA 91775, USA",2
11918574,34.08484,-118.083444,"8469 Wells St, Rosemead, CA 91770, USA",3
11965631,34.102701,-118.207435,"419 Crane Blvd, Los Angeles, CA 90065, USA",2
11970677,34.115221,-118.219949,"1061 Latin Way, Los Angeles, CA 90065, USA",3
11973353,34.120238,-118.192846,"5714 Meridian St, Los Angeles, CA 90042, USA",2
11975142,34.130806,-118.183068,"6286 Tipton Way, Los Angeles, CA 90042, USA",2
11996274,34.085121,-118.34599,"747 N Formosa Ave, Los Angeles, CA 90046, USA",2
12022617,34.099293,-118.389897,"1501 N Doheny Dr, Los Angeles, CA 90069, USA",1
12026027,34.115511,-118.363804,"2485 Jupiter Dr, Los Angeles, CA 90046, USA",2
12026073,34.106689,-118.362603,"2034 Hercules Dr, West Hollywood, CA 90046, USA",1
12027388,34.106496,-118.354986,"1930 N Curson Ave, Los Angeles, CA 90046, USA",3
12035796,34.108683,-118.295659,"2030 N Edgemont St, Los Angeles, CA 90027, USA",2
12037477,34.107831,-118.284064,"4327 Finley Ave, Los Angeles, CA 90027, USA",2
12080932,34.142404,-118.206368,"5231 Argus Dr, Los Angeles, CA 90041, USA",2
12087226,34.135397,-118.22189,"4801 Yosemite Way, Los Angeles, CA 90041, USA",2
12090360,34.137765,-118.197071,"5012 Hartwick St, Los Angeles, CA 90041, USA",2
12108062,34.162797,-118.133545,"976 N Hudson Ave, Pasadena, CA 91104, USA",2
12108177,34.16564,-118.135377,"1143 Palm Terrace, Pasadena, CA 91104, USA",3
12121131,34.142699,-118.094419,"2708 San Marcos Dr, Pasadena, CA 91107, USA",2
12129114,34.169716,-118.044545,"429 Sturtevant Dr, Sierra Madre, CA 91024, USA",2
12166046,34.185406,-118.138616,"2313 Santa Rosa Ave, Altadena, CA 91001, USA",2
12168744,34.191148,-118.117234,"1635 E Altadena Dr, Altadena, CA 91001, USA",2
12200362,33.961347,-118.236161,"8420 Grape St, Los Angeles, CA 90001, USA",2
12222505,33.947024,-118.279828,"400 W 98th St, Los Angeles, CA 90003, USA",2
12224786,33.948636,-118.316511,"2127 W 97th St, Los Angeles, CA 90047, USA",1
12226890,33.940935,-118.290062,"815 W 105th St, Los Angeles, CA 90044, USA",2
12239506,33.925293,-118.270402,"238 E 118th Pl, Los Angeles, CA 90061, USA",2
12260022,33.91294,-118.255547,"1124 E 131st St, Los Angeles, CA 90059, USA",1
12273567,33.909668,-118.232138,"2141 E Piru St, Compton, CA 90222, USA",2
12278018,33.881844,-118.220468,"1508 S Tamarind Ave, Compton, CA 90220, USA",2
12278521,33.884516,-118.207054,"1316 S Temple Ave, Compton, CA 90221, USA",1
12279003,33.901511,-118.222194,"800 N Tamarind Ave, Compton, CA 90220, USA",2
12300069,33.952414,-118.212037,"8982 State St, South Gate, CA 90280, USA",3
12336118,33.921035,-118.151411,"12733 Orizaba Ave, Downey, CA 90242, USA",2
12343458,33.895499,-118.127322,"15130 Ryon Ave, Bellflower, CA 90706, USA",1
12349338,33.914302,-118.118266,"10031 Adoree St, Downey, CA 90242, USA",3
12363170,33.976849,-118.207751,"6835 Hollenbeck St, Huntington Park, CA 90255, USA",1
12379157,34.001473,-118.112268,"804 San Marino Ave, Montebello, CA 90640, USA",1
12388589,33.963984,-118.109367,"8402 Manzanar Ave, Pico Rivera, CA 90660, USA",3
12396862,33.970355,-118.089615,"7428 Bennington Ave, Pico Rivera, CA 90660, USA",1
12415072,33.863561,-118.057006,"18516 Kamstra Ave, Cerritos, CA 90703, USA",2
12420695,33.856591,-118.053222,"13043 Espinheira Dr, Cerritos, CA 90703, USA",1
12426562,33.841514,-118.063705,"20735 Bloomfield Ave, Lakewood, CA 90715, USA",2
12430375,33.837549,-118.106531,"4354 Hackett Ave, Lakewood, CA 90713, USA",1
12430575,33.837609,-118.103093,"4400-4498 Ladoga Ave, Lakewood, CA 90713, USA",1
12431636,33.832443,-118.096137,"7036 Schroll St, Lakewood, CA 90713, USA",1
12470389,33.843946,-118.159785,"2702 Sandwood St, Lakewood, CA 90712, USA",1
12474843,33.854523,-118.1487,"3640 Camerino St, Lakewood, CA 90712, USA",3
12480549,33.863167,-118.128759,"5932 Lorelei Ave, Lakewood, CA 90712, USA",1
12486864,33.849448,-118.109929,"6227 Turnergrove Dr, Lakewood, CA 90713, USA",2
12496996,33.814838,-118.111427,"3184 Tevis Ave, Long Beach, CA 90808, USA",2
12514691,33.794383,-118.113204,"2110 Gondar Ave, Long Beach, CA 90815, USA",2
12515236,33.797623,-118.119853,"2253 Lomina Ave, Long Beach, CA 90815, USA",1
12518071,33.79792,-118.101115,"6803 E La Marimba St, Long Beach, CA 90815, USA",1
12529726,33.770696,-118.122477,No result,0
12561857,33.7689,-118.186,"134 Linden Ave, Long Beach, CA 90802, USA",2
12581774,33.811124,-118.283167,"23508 Naffa Ave, Carson, CA 90745, USA",2
12596910,33.837533,-118.338831,"1014 Felbar Ave, Torrance, CA 90503, USA",1
12616910,33.802195,-118.208797,"2476 Fashion Ave, Long Beach, CA 90810, USA",1
12659747,33.853791,-118.385861,"800 N Maria Ave, Redondo Beach, CA 90277, USA",1
12673381,33.844258,-118.373878,"5521 Edgemere Dr, Torrance, CA 90503, USA",1
12684857,33.799262,-118.358255,"4177 Vía Solano, Palos Verdes Estates, CA 90274, USA",1
12687701,33.771095,-118.41461,"2565 Palos Verdes Dr W, Palos Verdes Estates, CA 90274, USA",2
12708600,33.757621,-118.358908,"58 Oceanaire Dr, Rancho Palos Verdes, CA 90275, USA",1
12731899,33.922755,-117.999218,"11944 La Cima Dr, La Mirada, CA 90638, USA",2
12745844,33.907279,-118.097573,"13541 Crossdale Ave, Norwalk, CA 90650, USA",2
12751076,33.892255,-117.995122,"15768 Stanbrook Dr, La Mirada, CA 90638, USA",1
12751998,33.900736,-118.005492,"15254 Manzanares Rd, La Mirada, CA 90638, USA",2
12752421,33.901527,-117.995837,"15713 Orsa Dr, La Mirada, CA 90638, USA",1
12758851,33.893621,-118.090485,"15109 Sylvanwood Ave, Norwalk, CA 90650, USA",1
12776491,34.017489,-118.071148,"3724 Durfee Ave, Pico Rivera, CA 90660, USA",1
12791254,33.946541,-118.016879,"9428 Ruoff Ave, Whittier, CA 90603, USA",2
12819733,34.006876,-117.967315,"1334 Farmstead Ave, Hacienda Heights, CA 91745, USA",2
12822894,33.948037,-117.994047,"9931 Santa Gertrudes Ave, Whittier, CA 90603, USA",2
12823354,33.942449,-118.007412,"15073 Carnell St, Whittier, CA 90603, USA",1
12841044,34.043946,-117.94272,"1317 Del Valle Ave, La Puente, CA 91744, USA",1
12846094,33.948732,-117.934315,"1441 Peppertree Dr, La Habra Heights, CA 90631, USA",2
12863234,34.117583,-117.745207,"4154 La Junta Dr, Claremont, CA 91711, USA",1
12868970,34.091307,-117.718011,"229 Olive St, Claremont, CA 91711, USA",1
12881686,34.065645,-117.74497,"447 San Francisco Ave, Pomona, CA 91767, USA",2
12895279,34.100325,-117.743858,"435 E Harrison Ave, Pomona, CA 91767, USA",2
12898870,34.099085,-117.762707,"2481 3rd St, La Verne, CA 91750, USA",3
12900546,34.11541,-117.777193,"1326 Tabor Ln, La Verne, CA 91750, USA",1
12908236,34.079801,-117.833616,"1258 Vía Esperanza, San Dimas, CA 91773, USA",1
12908943,34.087907,-117.822625,"835 Avenida Loma Vista, San Dimas, CA 91773, USA",2
12928072,34.0823,-117.948345,"15066 Root St, Baldwin Park, CA 91706, USA",1
12936389,34.075182,-117.899519,"2136 W Workman Ave, West Covina, CA 91791, USA",2
12937757,34.075992,-117.926789,"1010 W Teresa St, West Covina, CA 91790, USA",2
12945222,34.057691,-117.942256,"1217 California Ave, West Covina, CA 91790, USA",1
12951826,34.057857,-117.913291,"1533 E Vine Ave, West Covina, CA 91791, USA",2
12965384,34.147737,-117.991048,"407 S Shamrock Ave, Monrovia, CA 91016, USA",1
12965407,34.146786,-117.991115,"500 S Shamrock Ave, Monrovia, CA 91016, USA",1
12965583,34.147514,-117.985773,"414 Mountain Ave, Monrovia, CA 91016, USA",2
12965875,34.151753,-117.992817,"519 E Foothill Blvd, Monrovia, CA 91016, USA",3
12969957,34.134544,-117.977004,"1600 Buena Vista St, Duarte, CA 91010, USA",1
12987566,34.079847,-117.971917,"13748 Frazier St, Baldwin Park, CA 91706, USA",2
13006366,34.104792,-118.043568,"10412 W Live Oak Ave, Arcadia, CA 91007, USA",1
13013426,34.141594,-117.951502,"910 Crestfield Dr, Duarte, CA 91010, USA",3
13017839,34.127664,-117.900555,"554 E 4th St, Azusa, CA 91702, USA",2
13039120,34.139977,-117.848606,"961 E Bennett Ave, Glendora, CA 91741, USA",2
13061611,34.03759,-117.776216,"23 Mill Valley Rd, Pomona, CA 91766, USA",1
13070806,34.055343,-117.842782,"1931 N Red Rock Dr, Walnut, CA 91789, USA",1
13081745,34.005789,-117.873667,"19602 Mackel Terrace, Walnut, CA 91789, USA",1
13083525,34.01129,-117.901101,"18360 Lanaca St, La Puente, CA 91744, USA",1
13094561,34.039774,-117.928853,"16402 Fairgrove Ave, La Puente, CA 91744, USA",1
13835593,33.770473,-117.878581,"1009 W River Ln, Santa Ana, CA 92706, USA",2
13835862,33.76571,-117.888627,"2214 N Spruce St, Santa Ana, CA 92706, USA",2
13838106,33.766265,-117.855317,"1105 E Avalon Ave, Santa Ana, CA 92705, USA",1
13849951,33.942322,-117.964062,"1101 Edgemont St, La Habra, CA 90631, USA",2
13852160,33.927428,-117.967253,"541 Berry Way, La Habra, CA 90631, USA",2
13853687,33.922475,-117.97116,"2221 Woodmere Cir, La Habra, CA 90631, USA",1
13870175,33.864194,-117.973568,"3513 W Oak Ave, Fullerton, CA 92833, USA",2
13892200,33.607964,-117.89015,"323 Marine Ave, Newport Beach, CA 92662, USA",3
13937874,33.797431,-117.812913,"3811 E El Carmen Ave, Orange, CA 92869, USA",3
13944486,33.752544,-117.981093,"8472 Sterling Way, Westminster, CA 92683, USA",3
13955176,33.752933,-117.951171,"14431 Hope St, Garden Grove, CA 92843, USA",1
13971084,33.731043,-117.941813,"10734 Morning Glory Ave, Fountain Valley, CA 92708, USA",2
13978612,33.697286,-117.977749,"8598 Amazon River Cir, Fountain Valley, CA 92708, USA",3
13981487,33.631938,-117.89297,"1527 Antigua Way, Newport Beach, CA 92660, USA",2
14000075,33.780772,-118.013741,"6810 Lampson Ave, Garden Grove, CA 92845, USA",1
14015763,33.828712,-118.000504,"3140 W Graciosa Ln, Anaheim, CA 92804, USA",2
14018674,33.690858,-117.934838,"3296 Georgia Pl, Costa Mesa, CA 92626, USA",3
14026971,33.741183,-117.992555,"7822 Colgate Ave, Westminster, CA 92683, USA",2
14081415,33.727347,-118.065014,"16166 Tortola Cir, Huntington Beach, CA 92649, USA",1
14084145,33.755531,-118.020546,"6212 Camphor Ave, Westminster, CA 92683, USA",3
14104384,33.789149,-117.908158,"12837 W Chapman Ave, Garden Grove, CA 92840, USA",1
14106542,33.816359,-118.033522,"5702 Belle Ave, Cypress, CA 90630, USA",3
14106757,33.811541,-118.034665,"10362 Lorraine Ln, Cypress, CA 90630, USA",3
14113282,33.82693,-118.028326,"9342 Lime Cir, Cypress, CA 90630, USA",2
14117857,33.826942,-117.875743,"917 S Chantilly St, Anaheim, CA 92806, USA",3
14121377,33.841726,-118.044283,"5081 Cartagena Cir, La Palma, CA 90623, USA",3
14173955,33.906996,-117.888446,"2213 Lark Ellen Dr, Fullerton, CA 92835, USA",2
14174784,33.892344,-117.885714,"2132 Associated Rd, Fullerton, CA 92831, USA",1
14178924,33.880164,-117.852398,"1032 Rashford Dr, Placentia, CA 92870, USA",2
14206817,33.84866,-117.753956,"790 Bunting Ct, Anaheim, CA 92808, USA",3
14208230,33.857876,-117.778402,"255 N Paseo Campo, Anaheim, CA 92807, USA",1
14227825,33.80403,-117.850989,"239 E Locust Ave, Orange, CA 92867, USA",1
14231395,33.80362,-117.801373,"967 N Cheyenne St, Orange, CA 92869, USA",1
14235927,33.78923,-117.844923,"174 N Cambridge St, Orange, CA 92866, USA",2
14270418,33.685982,-117.916071,"1387 Garlingford St, Costa Mesa, CA 92626, USA",3
14277762,33.641582,-117.942679,"1037 Parkhill Dr, Costa Mesa, CA 92627, USA",3
14292515,33.659905,-117.896972,"2542 Elden Ave, Costa Mesa, CA 92627, USA",3
14306720,33.685328,-117.790328,"10 Clove Blossom, Irvine, CA 92604, USA",3
14306820,33.685061,-117.786472,"4902 Irvine Center Dr, Irvine, CA 92604, USA",3
14311164,33.662808,-117.802964,"17282 Candleberry, Irvine, CA 92612, USA",3
14316055,33.629958,-117.854845,"3 Marble Sands, Newport Beach, CA 92660, USA",2
14318651,33.606264,-117.828851,"6502 Ridge Park Rd, Newport Beach, CA 92657, USA",3
14325959,33.605784,-117.821635,"14 Agostino, Newport Coast, CA 92657, USA",2
14338816,33.79688,-117.76182,"8519 E Hillsdale Dr, Orange, CA 92869, USA",3
14339384,33.859706,-117.719172,"974 Canyon Heights Dr, Anaheim, CA 92808, USA",2
14346545,33.720075,-117.755212,"17 Recodo, Irvine, CA 92620, USA",3
14362715,33.686871,-117.650637,"30 Celonova Pl, Foothill Ranch, CA 92610, USA",3
14368055,33.635951,-117.678607,No result,0
14383239,33.602207,-117.700062,"24796 Rittenhouse Cir, Laguna Hills, CA 92653, USA",3
14389079,33.572403,-117.686072,"25431 Spotted Pony Ln, Laguna Hills, CA 92653, USA",3
14389202,33.568396,-117.694826,"27161 Lost Colt Dr, Laguna Hills, CA 92653, USA",3
14390239,33.576806,-117.67624,"26621 Cabot Rd, Laguna Hills, CA 92653, USA",2
14399113,33.529019,-117.690954,"11 Palermo St, Laguna Niguel, CA 92677, USA",3
14399725,33.553079,-117.756129,"3145 Tyrol Dr, Laguna Beach, CA 92651, USA",3
14407272,33.518552,-117.688541,"24 Center Ct, Laguna Niguel, CA 92677, USA",3
14409888,33.516781,-117.659215,"30771 Via Conquista, San Juan Capistrano, CA 92675, USA",1
14420212,33.516503,-117.759562,"47 Blue Lagoon, Laguna Beach, CA 92651, USA",2
14429262,33.495273,-117.710185,"32256 Ridgeway Ave, Laguna Niguel, CA 92677, USA",1
14480343,33.601749,-117.58715,"6 Percheron, Coto De Caza, CA 92679, USA",2
14483928,33.633899,-117.624204,"26 Santa Teresa, Rancho Santa Margarita, CA 92688, USA",3
14490530,33.614446,-117.668273,"23992 Carrillo, Mission Viejo, CA 92691, USA",2
14501137,33.651895,-117.627352,"28871 Alanya, Mission Viejo, CA 92692, USA",3
17226551,34.225748,-118.815522,"3360 Hampton Ct, Thousand Oaks, CA 91362, USA",1
17247942,34.256122,-118.799381,"924 Westbluff Pl, Simi Valley, CA 93065, USA",1
14157075,33.928718,-117.84522,"3682 Starling Way, Brea, CA 92823, USA",1
11010006,34.293775,-118.525302,"12114 Bellando Ct, Granada Hills, CA 91344, USA",1
17106960,34.268795,-119.220178,"700 Saratoga Ave, Ventura, CA 93003, USA",2
17146086,34.221276,-119.214009,"3395 Castle Creek Ln, Oxnard, CA 93036, USA",1
11263613,34.649473,-118.205308,"42210 42nd St W, Quartz Hill, CA 93536, USA",1
14089284,33.74969,-118.089812,"918 Heron Cir, Seal Beach, CA 90740, USA",3
14327135,33.62741,-117.822958,"38 Tall Hedge, Irvine, CA 92603, USA",1
14465068,33.556406,-117.638528,"7 Hanoverian, Mission Viejo, CA 92694, USA",3
14457967,33.542854,-117.645554,"3 Ferrensby Way, Ladera Ranch, CA 92694, USA",3
11114915,34.442168,-118.565592,No result,0
11317787,34.678842,-118.231915,"43812 57th St W, Lancaster, CA 93536, USA",2
11409788,33.955952,-118.331817,"3521 Hughes Ln, Inglewood, CA 90305, USA",1
11324194,34.563656,-118.169297,"37452 Persimmon Ln, Palmdale, CA 93551, USA",2
11307405,34.679553,-118.207907,"4307 Edam St, Lancaster, CA 93536, USA",2
11191672,34.59317,-118.170411,"39120 Giant Sequoia St, Palmdale, CA 93551, USA",2
17056691,34.441824,-119.246781,"525 S Ventura St, Ojai, CA 93023, USA",2
17187902,34.210876,-119.017856,"3879 E Park, Camarillo, CA 93012, USA",2
17249242,34.255383,-118.776747,"834 Somera Ct, Simi Valley, CA 93065, USA",1
11216103,34.576282,-118.015126,"6425 Explorer Way, Palmdale, CA 93552, USA",2
11313563,34.666475,-118.073854,"3120 Justin Ct, Lancaster, CA 93535, USA",1
11313295,34.667629,-118.067423,"43146 Homestead St, Lancaster, CA 93535, USA",1
11332643,34.762445,-118.27638,"8155 W Ave E, Lancaster, CA 93536, USA",2
17052690,34.454499,-119.277999,"2293 Maricopa Hwy, Ojai, CA 93023, USA",2
17059530,34.431187,-119.284004,"11714 N Ventura Ave, Ojai, CA 93023, USA",2
17091688,34.274949,-119.176462,"749 Phoenix Ave, Ventura, CA 93004, USA",3
17143605,34.221526,-119.002625,"5059 Galano Dr, Camarillo, CA 93012, USA",1
17169612,34.176143,-119.188185,"940 Laurel St W, Oxnard, CA 93033, USA",1
17183443,34.165205,-119.161713,"3810 Boston Dr, Oxnard, CA 93033, USA",1
17193758,34.176961,-118.987209,"5254 Via Pisa, Thousand Oaks, CA 91320, USA",1
17216372,34.20515,-118.891689,"606 Lotus Ave, Thousand Oaks, CA 91360, USA",2
17223724,34.237831,-118.854327,"4258 Avenida Prado, Thousand Oaks, CA 91360, USA",3
17240618,34.289765,-118.672472,"3025 Flanagan Dr, Simi Valley, CA 93063, USA",3
17241438,34.24479,-118.76942,"1539 Mellow Ln, Simi Valley, CA 93065, USA",1
17253939,34.258499,-118.770551,"1490 Parkhurst St, Simi Valley, CA 93065, USA",2
17267191,34.155069,-118.947351,"1224 Comstock Pl, Thousand Oaks, CA 91320, USA",2
17271938,34.19452,-118.914646,"1631 Fox Springs Cir, Thousand Oaks, CA 91320, USA",1
17297560,34.172251,-118.74967,"6621 Smoke Tree Ave, Oak Park, CA 91377, USA",1
10720295,34.204375,-118.606692,"22016 Valerio St, Canoga Park, CA 91303, USA",1
10720440,34.203095,-118.608045,"22057 Wyandotte St, Canoga Park, CA 91303, USA",2
10724137,34.209791,-118.65103,"7548 Sedgewick Ct, Canoga Park, CA 91304, USA",3
10734031,34.165106,-118.633026,"23226 Gonzales Dr, Woodland Hills, CA 91367, USA",2
10737344,34.163076,-118.662418,"5560 Bonneville Rd, Hidden Hills, CA 91302, USA",1
10777995,34.197985,-118.526057,"7015 Hesperia Ave, Reseda, CA 91335, USA",3
10786680,34.191687,-118.562842,"6654 Jumilla Ave, Winnetka, CA 91306, USA",2
10807711,34.164373,-118.587647,"5155 Bascule Ave, Woodland Hills, CA 91364, USA",2
10819740,34.205923,-118.511561,"17404 Runnymede St, Van Nuys, CA 91406, USA",1
10819840,34.207316,-118.514103,"17462 Covello St, Van Nuys, CA 91406, USA",1
10820470,34.207363,-118.503508,"7525 Genesta Ave, Van Nuys, CA 91406, USA",2
10826488,34.201932,-118.435999,"13906 Cantlay St, Van Nuys, CA 91405, USA",1
10836736,34.188111,-118.490488,"16406 Hamlin St, Van Nuys, CA 91406, USA",1
10837141,34.187809,-118.495143,"16611 Gilmore St, Van Nuys, CA 91406, USA",1
10837946,34.188668,-118.479681,"6469 Gloria Ave, Van Nuys, CA 91406, USA",2
10853281,34.161047,-118.498035,No result,0
10861900,34.135897,-118.449528,"3557 Oakfield Dr, Sherman Oaks, CA 91423, USA",2
10864274,34.145887,-118.460665,"14957 Valley Vista Blvd, Sherman Oaks, CA 91403, USA",1
10887794,34.180059,-118.408686,"12634 Bessemer St, North Hollywood, CA 91606, USA",3
10912935,34.1471,-118.429487,"4222 Ventura Canyon Ave, Sherman Oaks, CA 91423, USA",2
10913333,34.149791,-118.406077,"4342 Babcock Ave, Studio City, CA 91604, USA",1
10914982,34.134689,-118.385952,"3514 Laurelvale Dr, Studio City, CA 91604, USA",2
10918670,34.138275,-118.422582,"3806 Dixie Canyon Ave, Sherman Oaks, CA 91423, USA",2
10923539,34.227898,-118.371452,"8761 Norris Ave, Sun Valley, CA 91352, USA",1
10956166,34.16816,-118.354824,"1124 N Valley St, Burbank, CA 91505, USA",2
10985618,34.27266,-118.418172,"11126 Norris Ave, Pacoima, CA 91331, USA",1
10993726,34.276897,-118.294928,"7458 Alpine Way, Tujunga, CA 91042, USA",1
11002506,34.26078,-118.291129,"10546 Las Lunitas Ave, Tujunga, CA 91042, USA",2
11029477,34.232511,-118.389352,"9014 El Dorado Ave, Sun Valley, CA 91352, USA",1
11030130,34.2257,-118.392808,"11933 Rialto St, Sun Valley, CA 91352, USA",1
11060403,34.237661,-118.499317,"9201 Whitaker Ave, Northridge, CA 91343, USA",1
11074953,34.273448,-118.539012,"18637 San Fernando Mission Blvd, Northridge, CA 91326, USA",1
11075199,34.26847,-118.537431,"18600 Celtic St, Northridge, CA 91326, USA",2
11079494,34.245378,-118.61131,"9636 Gierson Ave, Chatsworth, CA 91311, USA",2
11087639,34.252356,-118.601624,"16 Owensmouth Ave, Chatsworth, CA 91311, USA",1
11095974,34.227546,-118.602351,"21717 Bryant St, Canoga Park, CA 91304, USA",2
11101822,34.223992,-118.533258,"8441 Rathburn Ave, Northridge, CA 91325, USA",1
11110353,34.452358,-118.4993,"28108 Alaminos Dr, Santa Clarita, CA 91350, USA",2
11145912,34.410062,-118.489951,"26502 Sheldon Ave, Santa Clarita, CA 91351, USA",2
11175204,34.506078,-118.631406,"32287 Castaic Rd, Castaic, CA 91384, USA",3
11206725,34.568295,-118.059942,"37737 Medea Ct, Palmdale, CA 93550, USA",2
11213368,34.560427,-118.047986,"4561 E Avenue R-14, Palmdale, CA 93552, USA",2
11231084,34.549718,-117.976708,"8540 E Ave S-8, Littlerock, CA 93543, USA",1
11260472,34.63362,-118.215286,"4721 W Ave M14, Lancaster, CA 93536, USA",2
11261406,34.656085,-118.223597,"42551 52nd St W, Lancaster, CA 93536, USA",2
11265353,34.658799,-118.186672,"3131 Ave L 2, Lancaster, CA 93536, USA",2
11280850,34.684388,-118.175761,"2529 Key Ct, Lancaster, CA 93536, USA",1
11290974,34.675298,-118.117396,"660 Tina Ct, Lancaster, CA 93535, USA",2
11301515,34.693097,-118.090582,"2150 E Nugent St, Lancaster, CA 93535, USA",2
11319977,34.642159,-118.242007,"6230 W Ave M-4, Palmdale, CA 93551, USA",2
11329754,34.525424,-118.225436,"5339 Shannon Valley Rd, Acton, CA 93510, USA",2
11448187,33.859335,-118.338705,"18832 Felbar Ave, Torrance, CA 90504, USA",1
11448825,33.858912,-118.328489,"3210 189th St, Torrance, CA 90504, USA",3
11484103,33.908852,-118.361944,"4817 W 136th St, Hawthorne, CA 90250, USA",3
11511178,33.870987,-118.390997,"1224 20th Pl, Hermosa Beach, CA 90254, USA",2
11522375,34.0032,-118.395325,"10841 Pickford Way, Culver City, CA 90230, USA",1
11530249,33.995248,-118.404986,"5025 Berryman Ave, Culver City, CA 90230, USA",1
11539307,33.990779,-118.438056,"4150 Tivoli Ave, Los Angeles, CA 90066, USA",2
11554896,34.015665,-118.426926,"3491 Butler Ave, Los Angeles, CA 90066, USA",1
11642259,34.074415,-118.430915,"545 S Mapleton Dr, Los Angeles, CA 90024, USA",1
11653205,34.098733,-118.24518,"2667 Queen St, Los Angeles, CA 90039, USA",3
11654093,34.111602,-118.437962,"10010 Reevesbury Dr, Beverly Hills, CA 90210, USA",2
11703478,34.003038,-118.303458,"1497 W 45th St, Los Angeles, CA 90062, USA",2
11704687,34.001924,-118.295999,"4523 Budlong Ave, Los Angeles, CA 90037, USA",1
11714669,34.016545,-118.331306,"3825 Edgehill Dr, Los Angeles, CA 90008, USA",2
11744964,34.045108,-118.305666,"2880 W 15th St, Los Angeles, CA 90006, USA",2
11800598,34.044229,-118.195817,"3146 Boulder St, Los Angeles, CA 90063, USA",2
11816006,34.079675,-118.17174,"2932 Budau Ave, Los Angeles, CA 90032, USA",1
11820582,34.058264,-118.170174,"1525 Steele Ave, Los Angeles, CA 90063, USA",2
11854547,34.039841,-118.132632,"2028 Brockwell Ave, Monterey Park, CA 91754, USA",2
11887504,34.120863,-118.135272,"1464 Ridge Way, Pasadena, CA 91106, USA",2
11901421,34.081933,-118.124324,"1121 S 2nd St, Alhambra, CA 91801, USA",2
11905950,34.069453,-118.137041,"1218 W Hellman Ave, Alhambra, CA 91803, USA",3
11913107,34.106037,-118.10274,"244 Daroca Ave, San Gabriel, CA 91775, USA",3
11916028,34.086324,-118.096248,"1145 Walnut St, San Gabriel, CA 91776, USA",1
11947013,34.101725,-118.271185,"3051 Scotland St, Los Angeles, CA 90039, USA",3
11948938,34.124675,-118.261402,"3906 Seneca Ave, Los Angeles, CA 90039, USA",2
12001351,34.086425,-118.364665,"832 N Laurel Ave, Los Angeles, CA 90046, USA",3
12002086,34.089832,-118.358277,"1036 N Genesee Ave, West Hollywood, CA 90046, USA",3
